libName,lbiType,sidoName,gunguName,closeDay,weekdayTime,satTime,holidayTime,tkNum,tkDay,adrress,phNum,url,latitude,longitude
중랑구립면목정보도서관,공공도서관,서울특별시,중랑구,"매월 첫째, 셋째 월요일,법정공휴일(일요일제외) 및 근로자의날(5월1일), 임시휴관일",08:00-23:00,08:00-22:00,00:00-00:00,5,14,서울특별시 중랑구 면목로 397 (면목동),02-432-4120,http://www.jungnanglib.seoul.kr/mmlib,37.5873561521,127.0875565596
중랑숲어린이도서관,공공도서관,서울특별시,중랑구,"매주월요일, 법정공휴일(일요일제외) 및 근로자의날(5월1일), 임시휴관일",09:00-18:00,09:00-17:00,00:00-00:00,5,14,서울특별시 중랑구 망우로73길 46-1 (망우동),02-6235-1150,http://www.jungnanglib.seoul.kr/suplib,37.602634,127.103926
중화어린이도서관,공공도서관,서울특별시,중랑구,"매주일요일, 법정공휴일 및 근로자의날(5월1일), 임시휴관일",09:00-18:00,10:00-17:00,00:00-00:00,5,14,서울특별시 중랑구 중랑역로3길 28 (중화동),02-494-1846,http://www.jungnanglib.seoul.kr/jhklib,37.595004,127.0748924744
양원숲속도서관,공공도서관,서울특별시,중랑구,"매주월요일, 법정공휴일(일요일제외) 및 근로자의날(5월1일), 임시휴관일",09:00-18:00,09:00-17:00,00:00-00:00,5,14,서울특별시 중랑구 송림길 172 (망우동),02-432-0711,http://www.jungnanglib.seoul.kr/ywlib/,37.606825,127.110697
중랑상봉도서관,공공도서관,서울특별시,중랑구,"매주월요일, 법정공휴일(일요일제외) 및 근로자의날(5월1일), 임시휴관일",09:00-20:00,09:00-17:00,00:00-00:00,5,14,서울특별시 중랑구 동일로114길 10 (상봉동),,http://www.jungnanglib.seoul.kr/sblib/,37.5931272353,127.080932
송파글마루도서관,공공도서관,서울특별시,송파구,매주월요일+국가지정공휴일,09:00-22:00,09:00-22:00,09:00-22:00,5,14,서울특별시 송파구 충민로 120 (장지동),02-449-8855,http://www.splib.or.kr,37.4808326922,127.1304765731
송파어린이도서관,공공도서관,서울특별시,송파구,매주월요일+국가지정공휴일,09:00-18:00,09:00-18:00,09:00-18:00,5,14,서울특별시 송파구 올림픽로 105 (잠실동),02-418-0303,http://www.splib.or.kr,37.5121012604,127.0824284892
거마도서관,공공도서관,서울특별시,송파구,국가지정공휴일+2째월요일+4째월요일,08:00-23:00,08:00-23:00,08:00-23:00,5,14,서울특별시 송파구 거마로2길 19 (거여동),02-449-2332,http://www.splib.or.kr,37.493545,127.1468273964
소나무언덕1호,공공도서관,서울특별시,송파구,매주월요일+국가지정공휴일,09:00-22:00,09:00-22:00,09:00-22:00,5,14,서울특별시 송파구 올림픽로 47길 9 (풍납동),02-475-0266,http://www.splib.or.kr,37.5274169166,127.1180408616
소나무언덕2호,공공도서관,서울특별시,송파구,매주월요일+국가지정공휴일,09:00-22:00,09:00-22:00,09:00-22:00,5,14,서울특별시 송파구 석촌호수로 155 (잠실동),02-424-0083,http://www.splib.or.kr,37.5072666662,127.0942172981
소나무언덕3호,공공도서관,서울특별시,송파구,매주월요일+국가지정공휴일,09:00-22:00,09:00-22:00,09:00-22:00,5,14,서울특별시 송파구 성내천로 319 (마천동),02-443-0130,http://www.splib.or.kr,37.492325,127.156619
소나무언덕4호,공공도서관,서울특별시,송파구,매주월요일+국가지정공휴일,09:00-22:00,09:00-22:00,09:00-22:00,5,14,서울특별시 송파구 송이로 34 (송파동),02-419-5100,http://www.splib.or.kr,37.502207,127.116836
소나무언덕 잠실본동,공공도서관,서울특별시,송파구,매주월요일+국가지정공휴일,09:00-18:00,09:00-18:00,09:00-18:00,5,14,서울특별시 송파구 탄천동로 211 (잠실동),02-412-0750,http://www.splib.or.kr,37.5031008494,127.0788719571
송파어린이영어,공공도서관,서울특별시,송파구,매주월요일+국가지정공휴일,09:00-18:00,09:00-18:00,09:00-18:00,5,14,서울특별시 송파구 오금로 1 (신천동),02-415-3567,http://www.splib.or.kr,37.5223926038,127.1029830143
돌마리도서관,공공도서관,서울특별시,송파구,매주월요일+국가지정공휴일,09:00-22:00,09:00-22:00,09:00-22:00,5,14,서울특별시 송파구 백제고분로37길 16 (석촌동),02-414-7007,http://www.splib.or.kr,37.5035646147,127.1036854792
송파위례도서관,공공도서관,서울특별시,송파구,매주월요일+국가지정공휴일,09:00-22:00,09:00-22:00,09:00-22:00,5,14,서울특별시 송파구 위례광장로 210 (장지동),02-402-3003,http://www.splib.or.kr,37.4811666537,127.1439359526
은평구립도서관,공공도서관,서울특별시,은평구,"월요일,법정공휴일",09:00-22:00,09:00-18:00,09:00-18:00,5,14,서울특별시 은평구 통일로78가길 13-84,02-385-1671,http://www.eplib.or.kr/,37.61897412,126.9282674
증산정보도서관,공공도서관,서울특별시,은평구,"금요일,법정공휴일",09:00-22:00,09:00-18:00,09:00-18:00,5,14,서울특별시 은평구 증산로5길 6,02-307-6030,http://www.jsplib.or.kr/,37.5828079079,126.9076711057
응암정보도서관,공공도서관,서울특별시,은평구,"금요일,법정공휴일",09:00-22:00,09:00-18:00,09:00-18:00,5,14,서울특별시 은평구 가좌로 7길 15,02-308-2320,http://www.ealib.or.kr/,37.5859665629,126.9196820594
상림마을작은도서관,공공도서관,서울특별시,은평구,"월요일,법정공휴일",09:00-18:00,09:00-18:00,09:00-18:00,5,14,서울특별시 은평구 진관4로 48-25,02-838-7557,http://www.eplib.or.kr/,37.6442159908,126.9289423548
은평뉴타운 도서관,공공도서관,서울특별시,은평구,"금요일,법정공휴일",09:00-22:00,09:00-18:00,09:00-18:00,5,14,서울특별시 은평구 진관2로 111-51,02-6341-6400,http://www.enlib.or.kr/,37.6372303968,126.9331183475
중랑구립정보도서관,공공도서관,서울특별시,중랑구,"매월 둘째, 넷째 월요일,법정공휴일(일요일제외) 및 근로자의날(5월1일), 임시휴관일",07:00-23:00,07:00-22:00,00:00-00:00,5,14,서울특별시 중랑구 신내로15길 197 (묵동),02-490-9113,http://www.jungnanglib.seoul.kr/jnlib,37.6151557,127.0869050507
사당솔밭도서관,공공도서관,서울특별시,동작구,"매주 월요일, 법정공휴일",09:00-22:00,09:00-17:00,00:00-00:00,5,14,서울특별시 동작구 솔밭로 86,02-585-8411,http://lib.dongjak.go.kr/,37.484056,126.967369
동작상도국주도서관,공공도서관,서울특별시,동작구,"매주 월요일, 법정공휴일",09:00-22:00,09:00-17:00,00:00-00:00,5,14,서울특별시 동작구 매봉로 37,02-813-6750,http://lib.dongjak.go.kr/,37.5068219493,126.9509960718
동작어린이도서관,공공도서관,서울특별시,동작구,"매주 월요일, 법정공휴일",09:00-18:00,09:00-17:00,00:00-00:00,5,14,서울특별시 동작구 장승배기로16길 98,02-823-6750,http://lib.dongjak.go.kr/,37.5092044290,126.943434
대방어린이도서관,공공도서관,서울특별시,동작구,"매주 월요일, 법정공휴일",09:00-18:00,09:00-17:00,00:00-00:00,5,14,서울특별시 동작구 대방동길 55,02-813-6740,http://lib.dongjak.go.kr/,37.5030242235,126.9252221319
약수도서관,공공도서관,서울특별시,동작구,"매주 월요일, 법정공휴일",09:00-18:00,09:00-17:00,00:00-00:00,5,14,서울특별시 동작구 양녕로22바길 64,02-823-1907,http://lib.dongjak.go.kr/,37.497851,126.9474396
동작샘터도서관,작은도서관,서울특별시,동작구,"매주 월요일, 법정공휴일",09:00-18:00,09:00-17:00,00:00-00:00,5,14,서울특별시 동작구 동작대로29길 63-26,02-533-6750,http://lib.dongjak.go.kr/,37.4883609,126.977553
다울작은도서관,작은도서관,서울특별시,동작구,"매주 월요일, 법정공휴일",09:00-18:00,09:00-17:00,00:00-00:00,5,14,서울특별시 동작구 사당로20길132,02-3473-3360,http://lib.dongjak.go.kr/,37.4788487,126.9732460032
국사봉숲속작은도서관,작은도서관,서울특별시,동작구,"매주 일요일, 법정공휴일",10:00-18:00,10:00-18:00,00:00-00:00,5,14,서울특별시 동작구 양녕로23길27,02-820-9221,http://lib.dongjak.go.kr/,37.4954320648,126.9405908581
중앙동 새싹작은도서관,작은도서관,서울특별시,관악구,매주 토/일요일/국가지정공휴일,10:00-18:00,00:00-00:00,00:00-00:00,5,14,서울특별시 관악구 양녕로6다길 7,02-875-9513,http://lib.gwanak.go.kr/,37.484166,126.949749
청림동 푸른숲작은도서관,작은도서관,서울특별시,관악구,매주 토/일요일/국가지정공휴일,10:00-18:00,00:00-00:00,00:00-00:00,5,14,서울특별시 관악구 관악로40길 39,02-876-4090,http://lib.gwanak.go.kr/,37.491797,126.958599
행운동 마루작은도서관,작은도서관,서울특별시,관악구,매주 토/일요일/국가지정공휴일,10:00-18:00,00:00-00:00,00:00-00:00,5,14,서울특별시 관악구 행운1길 43,02-876-3434,http://lib.gwanak.go.kr/,37.480593,126.957059
청룡동 숯고을작은도서관,작은도서관,서울특별시,관악구,매주 토/일요일/국가지정공휴일,10:00-18:00,00:00-00:00,00:00-00:00,5,14,서울특별시 관악구 쑥고개로 44,02-876-4083,http://lib.gwanak.go.kr/,37.479107,126.941694
낙성동 우듬지작은도서관,작은도서관,서울특별시,관악구,매주 토/일요일/국가지정공휴일,10:00-18:00,00:00-00:00,00:00-00:00,5,14,서울특별시 관악구 낙성대로4가길 5,02-876-4072,http://lib.gwanak.go.kr/,37.476264,126.958365
미성동 책의향기작은도서관,작은도서관,서울특별시,관악구,매주 토/일요일/국가지정공휴일,10:00-18:00,00:00-00:00,00:00-00:00,5,14,서울특별시 관악구 난곡로 249,02-830-5312,http://lib.gwanak.go.kr/,37.476132,126.915527
삼성동 샛별작은도서관,작은도서관,서울특별시,관악구,매주 토/일요일/국가지정공휴일,10:00-18:00,00:00-00:00,00:00-00:00,5,14,서울특별시 관악구 호암로 589,02-876-2063,http://lib.gwanak.go.kr/,37.470073,126.932964
책쉼터,작은도서관,서울특별시,관악구,매주 일요일/국가지정공휴일,10:00-18:00,00:00-00:00,00:00-00:00,2,7,서울특별시 관악구 낙성대로3길 37,00-000-0000,http://lib.gwanak.go.kr/,37.472973,126.960215
신림청소년독서실,작은도서관,서울특별시,관악구,매주 일요일/국가지정공휴일,10:00-18:00,00:00-00:00,00:00-00:00,3,7,서울특별시 관악구 난곡로64가길 19,070-7525-0619,http://lib.gwanak.go.kr/,37.480177,126.916185
관악산 詩도서관,작은도서관,서울특별시,관악구,매주 화요일/국가지정공휴일,10:00-18:00,00:00-00:00,00:00-00:00,5,14,서울특별시 관악구 신림로 23,02-871-2261,http://lib.gwanak.go.kr/,37.468116,126.946069
낙성대공원도서관,작은도서관,서울특별시,관악구,매주 화요일/국가지정공휴일,10:00-18:00,00:00-00:00,00:00-00:00,5,14,서울특별시 관악구 낙성대로 77,02-872-5575,http://lib.gwanak.go.kr/,37.471383,126.959727
하난곡작은도서관,작은도서관,서울특별시,관악구,매주 화요일/국가지정공휴일,10:00-18:00,00:00-00:00,00:00-00:00,5,14,서울특별시 관악구 난우10가길 20-7,02-868-8994,http://lib.gwanak.go.kr/,37.4767912,126.919945
용꿈꾸는 작은도서관,작은도서관,서울특별시,관악구,매주 일요일/국가지정공휴일,10:00-18:00,00:00-00:00,00:00-00:00,5,14,서울특별시 관악구 관악로 145,02-889-8823,http://lib.gwanak.go.kr/,37.478127,126.951487
도림천에서 용나는 작은도서관,작은도서관,서울특별시,관악구,매주 화요일/국가지정공휴일,10:00-18:00,00:00-00:00,00:00-00:00,5,14,서울특별시 관악구 신림로 297,02-877-2722,http://lib.gwanak.go.kr/,37.480942,126.929827
꿈나무 영유아도서관,작은도서관,서울특별시,관악구,매주 화요일/국가지정공휴일,10:00-18:00,00:00-00:00,00:00-00:00,5,14,서울특별시 관악구 신림로3길 35,02-828-5721,http://lib.gwanak.go.kr/,37.467081,126.944781
보라매동 다사랑작은도서관,작은도서관,서울특별시,관악구,매주 토/일요일/국가지정공휴일,10:00-18:00,00:00-00:00,00:00-00:00,5,14,서울특별시 관악구 봉천로 279-8,02-876-2879,http://lib.gwanak.go.kr/,37.467081,126.944781
은천동 한울작은도서관,작은도서관,서울특별시,관악구,매주 토/일요일/국가지정공휴일,10:00-18:00,00:00-00:00,00:00-00:00,5,14,서울특별시 관악구 국회단지2길 29-10,02-876-4091,http://lib.gwanak.go.kr/,37.486875,126.941527
인헌동 보물섬 작은도서관,작은도서관,서울특별시,관악구,매주 토/일요일/국가지정공휴일,10:00-18:00,00:00-00:00,00:00-00:00,5,14,서울특별시 관악구 남부순환로246가길 20,02-889-4941,http://lib.gwanak.go.kr/,37.475044,126.965247
난곡동 책사랑 작은도서관,작은도서관,서울특별시,관악구,매주 토/일요일/국가지정공휴일,10:00-18:00,00:00-00:00,00:00-00:00,5,14,서울특별시 관악구 난곡로 30길 40,02-861-7130,http://lib.gwanak.go.kr/,37.470991,126.921644
난향동 뜰안에작은도서관,작은도서관,서울특별시,관악구,매주 토/일요일/국가지정공휴일,10:00-18:00,00:00-00:00,00:00-00:00,5,14,서울특별시 관악구 난곡로 67,02-867-1735,http://lib.gwanak.go.kr/,37.164461,126.918785
남현동 우리작은도서관,작은도서관,서울특별시,관악구,매주 토/일요일/국가지정공휴일,10:00-18:00,00:00-00:00,00:00-00:00,5,14,서울특별시 관악구 남현1가길 29,02-525-1334,http://lib.gwanak.go.kr/,37.474518,126.9778675
신림동 굴렁쇠작은도서관,작은도서관,서울특별시,관악구,매주 토/일요일/국가지정공휴일,10:00-18:00,00:00-00:00,00:00-00:00,5,14,서울특별시 관악구 신림동길 14,02-877-2727,http://lib.gwanak.go.kr/,37.487372,126.927118
서림동 글사랑작은도서관,작은도서관,서울특별시,관악구,매주 토/일요일/국가지정공휴일,10:00-18:00,00:00-00:00,00:00-00:00,5,14,서울특별시 관악구 신림로29길 6,02-884-3951,http://lib.gwanak.go.kr/,37.474961,126.934984
신원동 울타리작은도서관,작은도서관,서울특별시,관악구,매주 토/일요일/국가지정공휴일,10:00-18:00,00:00-00:00,00:00-00:00,5,14,서울특별시 관악구 신원로3길 13-6,02-839-1547,http://lib.gwanak.go.kr/,37.481565,126.927333
신사동 해오름작은도서관,작은도서관,서울특별시,관악구,매주 토/일요일/국가지정공휴일,10:00-18:00,00:00-00:00,00:00-00:00,5,14,서울특별시 관악구 조원로 151-1,02-853-7336,http://lib.gwanak.go.kr/,37.485923,126.919089
서원동 어울작은도서관,작은도서관,서울특별시,관악구,매주 토/일요일/국가지정공휴일,10:00-18:00,00:00-00:00,00:00-00:00,5,14,서울특별시 관악구 신림로 282,02-872-5322,http://lib.gwanak.go.kr/,37.479734,126.9313649
대학동 녹두작은도서관,작은도서관,서울특별시,관악구,매주 토/일요일/국가지정공휴일,10:00-18:00,00:00-00:00,00:00-00:00,5,14,서울특별시 관악구 신림로 111,02-872-4765,http://lib.gwanak.go.kr/,37.470598,126.936927
성현동 파랑새작은도서관,작은도서관,서울특별시,관악구,매주 토/일요일/국가지정공휴일,10:00-18:00,00:00-00:00,00:00-00:00,5,14,서울특별시 관악구 구암길 38,02-875-9054,http://lib.gwanak.go.kr/,37.489512,126.948077
신림청소년독서실,작은도서관,서울특별시,관악구,매주 일요일/국가지정공휴일,08:00-23:00,08:00-23:00,09:00-22:00,3,7,서울특별시 관악구 난곡로64가길 19,070-7525-0619,http://lib.gwanak.go.kr/,37.480177,126.916185
관악문화관도서관,공공도서관,서울특별시,관악구,매주 화요일/국가지정공휴일,07:00-23:00,09:00-17:00,00:00-00:00,5,14,서울특별시 관악구 신림로3길 35(신림동),02-828-5700,http://lib.gwanak.go.kr/,37.467135,126.944735
글빛정보도서관,공공도서관,서울특별시,관악구,매주 수요일/국가지정공휴일,07:00-23:00,09:00-22:00,00:00-00:00,5,14,서울특별시 관악구 관악로 30길 23,02-878-7460,http://lib.gwanak.go.kr/,37.486252,126.959668
성현동작은도서관,공공도서관,서울특별시,관악구,매주 화요일/국가지정공휴일,09:00-19:00,09:00-17:00,00:00-00:00,5,14,서울특별시 관악구 관악로 37길 56,02-877-7182,http://lib.gwanak.go.kr/,37.487704,126.956096
은천동작은도서관,공공도서관,서울특별시,관악구,매주 화요일/국가지정공휴일,09:00-20:00,09:00-17:00,00:00-00:00,5,14,서울특별시 관악구 봉천로 33나길 30,02-877-1162,http://lib.gwanak.go.kr/,37.485298,126.942434
조원작은도서관,공공도서관,서울특별시,관악구,매주 수요일/법정공휴일,09:00-20:00,09:00-17:00,00:00-00:00,5,14,서울특별시 관악구 조원로 12길 25,02-851-5571,http://lib.gwanak.go.kr/,34.482544,126.907773
책이랑놀이랑,작은도서관,서울특별시,관악구,매주 화요일/국가지정공휴일,09:00-18:00,09:00-17:00,00:00-00:00,5,14,서울특별시 관악구 행운1길 12,02-878-0955,http://lib.gwanak.go.kr/,37.479992,126.958588
관악산 詩도서관,작은도서관,서울특별시,관악구,매주 화요일/국가지정공휴일,09:00-18:00,09:00-17:00,00:00-00:00,5,14,서울특별시 관악구 신림로 23,02-871-2261,http://lib.gwanak.go.kr/,37.468116,126.946069
낙성대공원도서관,작은도서관,서울특별시,관악구,매주 화요일/국가지정공휴일,09:00-18:00,09:00-17:00,00:00-00:00,5,14,서울특별시 관악구 낙성대로 77,02-872-5575,http://lib.gwanak.go.kr/,37.471383,126.959727
하난곡작은도서관,작은도서관,서울특별시,관악구,매주 화요일/국가지정공휴일,09:00-18:00,09:00-17:00,00:00-00:00,5,14,서울특별시 관악구 난우10가길 20-7,02-868-8994,http://lib.gwanak.go.kr/,37.4767912,126.919945
용꿈꾸는 작은도서관,작은도서관,서울특별시,관악구,매주 일요일/국가지정공휴일,09:00-22:00,09:00-17:00,00:00-00:00,5,14,서울특별시 관악구 관악로 145,02-889-8823,http://lib.gwanak.go.kr/,37.478127,126.951487
도림천에서 용나는 작은도서관,작은도서관,서울특별시,관악구,매주 화요일/국가지정공휴일,09:00-20:00,09:00-17:00,00:00-00:00,5,14,서울특별시 관악구 신림로 297,02-877-2722,http://lib.gwanak.go.kr/,37.480942,126.929827
꿈나무 영유아도서관,작은도서관,서울특별시,관악구,매주 화요일/국가지정공휴일,09:00-18:00,09:00-17:00,00:00-00:00,5,14,서울특별시 관악구 신림로3길 35,02-828-5721,http://lib.gwanak.go.kr/,37.467081,126.944781
서울대입구역 U-도서관,작은도서관,서울특별시,관악구,국가지정공휴일(설날/추석),06:00-00:00,06:00-00:00,00:00-00:00,5,14,서울특별시 관악구 남부순환로 지하 1822,00-000-0000,http://lib.gwanak.go.kr/,37.481239,126.952747
신대방역 U-도서관,작은도서관,서울특별시,관악구,국가지정공휴일(설날/추석),06:00-00:00,06:00-00:00,00:00-00:00,5,14,서울특별시 동작구 대림로 2(신대방역),00-000-0000,http://lib.gwanak.go.kr/,37.487397,126.913024
봉천역 U-도서관,작은도서관,서울특별시,관악구,국가지정공휴일(설날/추석),06:00-00:00,06:00-00:00,00:00-00:00,5,14,서울특별시 관악구 남부순환로 지하 1721,00-000-0000,http://lib.gwanak.go.kr/,37.482332,126.942487
낙성대역 U-도서관,작은도서관,서울특별시,관악구,국가지정공휴일(설날/추석),06:00-00:00,06:00-00:00,00:00-00:00,5,14,서울특별시 관악구 남부순환로 지하 1928,00-000-0000,http://lib.gwanak.go.kr/,37.476975,126.963739
신림역 U-도서관,작은도서관,서울특별시,관악구,국가지정공휴일(설날/추석),06:00-00:00,06:00-00:00,00:00-00:00,5,14,서울특별시 관악구 남부순환로 지하 1614,00-000-0000,http://lib.gwanak.go.kr/,37.484224,126.929681
봉현작은도서관,작은도서관,서울특별시,관악구,매주 일요일/국가지정공휴일,09:00-18:00,09:00-18:00,00:00-00:00,5,14,서울특별시 관악구 관악로 255-7,070-7163-5167,http://lib.gwanak.go.kr/,37.4871775,126.956625
청룡작은도서관,작은도서관,서울특별시,관악구,매주 일요일/국가지정공휴일,09:00-18:00,09:00-18:00,00:00-00:00,5,14,서울특별시 관악구 청룡9길 12-39,02-876-4041,http://lib.gwanak.go.kr/,37.478018,126.946457
삼성작은도서관,작은도서관,서울특별시,관악구,매주 일요일/국가지정공휴일,09:00-18:00,09:00-18:00,00:00-00:00,5,14,서울특별시 관악구 호암로 520,070-7163-5166,http://lib.gwanak.go.kr/,37.464073,126.931802
숲속작은도서관,작은도서관,서울특별시,관악구,매주 화요일/국가지정공휴일,10:00-18:00,00:00-00:00,00:00-00:00,5,14,서울특별시 관악구 관악산 나들길 114,070-4118-6154,http://lib.gwanak.go.kr/,37.458841,126.946195
책이랑놀이랑,작은도서관,서울특별시,관악구,매주 화요일/국가지정공휴일,10:00-18:00,00:00-00:00,00:00-00:00,5,14,서울특별시 관악구 행운1길 12,02-878-0955,http://lib.gwanak.go.kr/,37.479992,126.958588
책쉼터,작은도서관,서울특별시,관악구,매주 일요일/국가지정공휴일,10:00-18:00,00:00-00:00,00:00-00:00,4,14,서울특별시 관악구 낙성대로3길 37,02-879-5712,http://lib.gwanak.go.kr/,37.472973,126.960215
숲속작은도서관,작은도서관,서울특별시,관악구,매주 화요일/국가지정공휴일,09:00-17:00,09:00-17:00,00:00-00:00,5,14,서울특별시 관악구 관악산 나들길 114,070-4118-6154,http://lib.gwanak.go.kr/,37.458841,126.946195
지웰작은도서관,작은도서관,서울특별시,은평구,"목, 일요일/법정공휴일",13:00-17:00,13:00-17:00,00:00-00:00,3,14,서울특별시 은평구 은평구 진관4로 78-38,02-353-0911,,37.64427599,126.9312529
사랑꿈터 작은 도서관,작은도서관,서울특별시,은평구,"토,일, 법정공휴일",13:00-17:30,00:00-00:00,00:00-00:00,3,7,서울특별시 은평구 은평구 진관4로 47 706동 1층,,,,
구립 청파도서관,공공도서관,서울특별시,용산구,"월,법정공휴일",09:00-21:00,09:00-17:00,09:00-17:00,3,14,서울특별시 용산구 청파로93길 27,02-714-3931,https://www.yslibrary.or.kr/cheongpa/index.do,37.5539248195,126.9676059172
용산 꿈나무도서관,공공도서관,서울특별시,용산구,"월,법정공휴일",09:00-21:00,09:00-17:00,09:00-17:00,3,14,서울특별시 용산구 녹사평대로329,02-707-0138,https://www.yslibrary.or.kr/dream/index.do,,
청파 어린이 영어도서관,작은도서관,서울특별시,용산구,"토,일,법정공휴일",10:00-19:00,10:00-17:00,00:00-00:00,3,14,서울특별시 용산구 청파로49길 34,02-702-0641,https://www.yslibrary.or.kr/small/index.do,37.5454736959,126.9685012617
용암 어린이 영어도서관,작은도서관,서울특별시,용산구,"토,일,법정공휴일",10:00-19:00,10:00-17:00,00:00-00:00,3,14,서울특별시 용산구 신흥로3가길21-7,02-798-4181,https://www.yslibrary.or.kr/small/index.do,37.5410187594,126.9846928588
북카페 청마루,작은도서관,서울특별시,용산구,"토,일,법정공휴일",08:30-18:30,00:00-00:00,00:00-00:00,3,14,서울특별시 용산구 녹사평대로150,02-2199-8967,https://www.yslibrary.or.kr/small/index.do,37.5324526548,126.9904782550
후암동작은도서관 북앤캠프,작은도서관,서울특별시,용산구,"토,일,법정공휴일",09:00-17:00,00:00-00:00,00:00-00:00,3,14,서울특별시 용산구 후암로32-6,02-2199-8758,https://www.yslibrary.or.kr/small/index.do,37.5486978477,126.9781504584
해다올 작은도서관,작은도서관,서울특별시,용산구,"토,일,법정공휴일",09:00-17:00,00:00-00:00,00:00-00:00,3,14,서울특별시 용산구 신흥로90,02-2199-8739,https://www.yslibrary.or.kr/small/index.do,37.5460752787,126.9855699402
남영동 작은도서관,작은도서관,서울특별시,용산구,"토,일,법정공휴일",09:00-17:00,00:00-00:00,00:00-00:00,3,14,서울특별시 용산구 두텁바위로1길 13,02-775-9260,https://www.yslibrary.or.kr/small/index.do,37.5457054867,126.9730908780
원효로제2동 작은도서관 두드림,작은도서관,서울특별시,용산구,"토,일,법정공휴일",09:30-17:30,00:00-00:00,00:00-00:00,3,14,서울특별시 용산구 효창원로8길 3,02-2199-8755,https://www.yslibrary.or.kr/small/index.do,37.5343532215,126.9515482962
효창동 작은도서관,작은도서관,서울특별시,용산구,"토,일,법정공휴일",09:00-17:00,00:00-00:00,00:00-00:00,3,14,서울특별시 용산구 효창원로161,02-2199-8753,https://www.yslibrary.or.kr/small/index.do,37.5425092453,126.9618400135
오렌지나무 작은도서관,작은도서관,서울특별시,용산구,"토,일,법정공휴일",09:00-17:00,00:00-00:00,00:00-00:00,3,14,서울특별시 용산구 새창로12길13,02-2199-8754,https://www.yslibrary.or.kr/small/index.do,37.5389542495,126.9575829188
한강로동 작은도서관,작은도서관,서울특별시,용산구,"토,일,법정공휴일",09:30-17:30,00:00-00:00,00:00-00:00,3,14,서울특별시 용산구 한강대로38길 28,02-2199-8743,https://www.yslibrary.or.kr/small/index.do,37.5281422426,126.9692280709
이촌2동 작은도서관,작은도서관,서울특별시,용산구,"일,법정공휴일",09:00-20:00,00:00-00:00,00:00-00:00,3,14,서울특별시 용산구 이촌로18길 20,02-2199-8756,https://www.yslibrary.or.kr/small/index.do,37.5262814836,126.9546577844
회나무 작은도서관,작은도서관,서울특별시,용산구,"토,일,법정공휴일",09:00-17:00,00:00-00:00,00:00-00:00,3,14,서울특별시 용산구 회나무로13길 58,02-2199-8647,https://www.yslibrary.or.kr/small/index.do,37.5419023243,126.9901964343
한남동 작은도서관,작은도서관,서울특별시,용산구,"토,일,법정공휴일",09:30-18:00,00:00-00:00,00:00-00:00,3,14,서울특별시 용산구 이태원로224-19,02-2199-8742,https://www.yslibrary.or.kr/small/index.do,37.5348569089,127.0002670156
서빙고동 작은도서관,작은도서관,서울특별시,용산구,"토,일,법정공휴일",09:00-17:00,00:00-00:00,00:00-00:00,3,14,서울특별시 용산구 서빙고로 279,02-2199-8687,https://www.yslibrary.or.kr/small/index.do,37.5204767979,126.9946516618
작은도서관 꿈꾸는 책마을,작은도서관,서울특별시,용산구,"토,일,법정공휴일",09:00-17:30,00:00-00:00,00:00-00:00,3,14,서울특별시 용산구 장문로95,02-2199-8708,https://www.yslibrary.or.kr/small/index.do,37.5263009993,127.0001810069
별밭 작은도서관,작은도서관,서울특별시,용산구,"토,일,법정공휴일",09:30-17:30,00:00-00:00,00:00-00:00,3,14,서울특별시 용산구 장문로95,02-2199-8740,https://www.yslibrary.or.kr/small/index.do,37.5263009993,127.0001810069
상림6 작은도서관,작은도서관,서울특별시,은평구,"토,일요일 법정공휴일",11:00-13:00,00:00-00:00,00:00-00:00,2,14,서울특별시 은평구 진관4로 107 621동 1층(1지구),02-355-5905,,,
은평뉴타운 상림마을  제7단지 문고(푸른꿈),작은도서관,서울특별시,은평구,"토,일요일 법정공휴일",12:30-16:30,00:00-00:00,00:00-00:00,5,10,서울특별시 은평구 진관4로 100 608동 1층(1지구),02-388-5951,,,
은평뉴타운5단지,작은도서관,서울특별시,은평구,"토,일요일 법정공휴일",11:00-16:00,00:00-00:00,00:00-00:00,0,0,서울특별시 은평구 진관4로 87 629동 1층(1지구),02-355-3644,,,
모퉁이작은도서관(은평뉴타운 상림마을 14단지 마을문고),작은도서관,서울특별시,은평구,"토,일요일 법정공휴일",14:00-18:00,00:00-00:00,00:00-00:00,3,14,서울특별시 은평구 진관4로 48-51 730동 1층(1지구),02-351-3995,,,
롯데캐슬문고,작은도서관,서울특별시,은평구,"토,일요일 법정공휴일",13:00-17:00,00:00-00:00,00:00-00:00,3,7,서울특별시 은평구 진관3로 70 830동 1층(1지구),02-355-6307,,,
상림책마루작은도서관,작은도서관,서울특별시,은평구,"토,일요일 법정공휴일",09:00-18:00,14:00-17:00,00:00-00:00,3,7,서울특별시 은평구 진관4로 17 810동 1층(1지구),02-355-2281,,,
우물골작은도서관,작은도서관,서울특별시,은평구,일요일 법정공휴일,13:00-17:00,00:00-00:00,00:00-00:00,5,7,서울특별시 은평구 진관2로 77 206동 1층(2지구),02-353-1548,,,
큰꿈(을 키우는 작은)도서관,작은도서관,서울특별시,은평구,일요일 법정공휴일,10:00-17:00,00:00-00:00,00:00-00:00,10,7,서울특별시 은평구 진관2로 57-37 244동 1층(2지구),02-354-1651,,,
래미안 푸른숲 도서관,작은도서관,서울특별시,은평구,일요일 법정공휴일,14:00-18:00,00:00-00:00,00:00-00:00,3,7,서울특별시 은평구 진관3로 77 924동 1층(3지구),070-8800-8557,http://cafe.daum.net/pooreun2n9,,
두드림 도서관,작은도서관,서울특별시,은평구,"토,일요일 법정공휴일",11:00-18:00,00:00-00:00,00:00-00:00,5,14,서울특별시 은평구 진관3로 15-35 1001동 1층(3지구),02-385-2772,,,
종이책갈피 작은도서관,작은도서관,서울특별시,은평구,"토,일요일 법정공휴일",13:00-17:00,00:00-00:00,00:00-00:00,6,14,서울특별시 은평구 진관3로 67 912동 1층(3지구),,,,
푸른작은도서관,작은도서관,서울특별시,은평구,"토,일요일 법정공휴일",13:00-17:00,00:00-00:00,00:00-00:00,2,7,서울특별시 은평구 연서로 455 537동 1층(3지구),02-359-1801,,,
솔빛도서관,작은도서관,서울특별시,은평구,"토,일요일 법정공휴일",13:00-17:00,00:00-00:00,00:00-00:00,0,0,서울특별시 은평구 연서로 487 524동 1층(3지구),02-358-8146,,,
샘터작은도서관,작은도서관,서울특별시,은평구,일요일 법정공휴일,13:00-17:00,13:00-17:00,00:00-00:00,5,7,서울특별시 은평구 진관2로 111-7 220동 지하1층(2지구),02-353-1572,,,
책뜰에도서관,작은도서관,서울특별시,은평구,"토,일 법정공휴일",11:00-18:00,00:00-00:00,00:00-00:00,4,7,서울특별시 은평구 북한산로 2 1023동 1층(3지구),02-355-6893,,,
마고정 작은도서관,작은도서관,서울특별시,은평구,"토,일요일 법정공휴일",13:00-18:00,00:00-00:00,00:00-00:00,3,14,서울특별시 은평구 진관2로 60(진관동 105) 335동 1층 (관리소 334동),02-353-1346,,37.63395286,126.9227981301
숲속 향기 작은도서관,작은도서관,서울특별시,은평구,명절 연휴,11:00-17:00,11:00-17:00,11:00-17:00,2,14,서울특별시 은평구 연서로48길 12 501동 앞,070-8931-8473,,,
지혜누리작은도서관,작은도서관,서울특별시,은평구,"토,일요일 법정공휴일",13:00-17:00,00:00-00:00,00:00-00:00,5,14,서울특별시 은평구 연서로44길 30 425동 2층,02-358-5935,,,
꿈지락작은도서관,작은도서관,서울특별시,은평구,"토,일요일 법정공휴일",10:00-17:00,00:00-00:00,00:00-00:00,7,7,서울특별시 은평구 진관1로 77-8 401동,070-7721-1002,,37.63174889,126.929022
꿈꾸는i작은도서관,작은도서관,서울특별시,은평구,일요일 법정공휴일,13:00-17:00,00:00-00:00,00:00-00:00,5,10,서울특별시 은평구 진관3로 42 (1지구) (은평제일교회),02-353-2829,,37.6402624,126.9211419425
산책마을 SH작은도서관,작은도서관,서울특별시,은평구,"토,일요일 법정공휴일",13:00-17:00,00:00-00:00,00:00-00:00,2,14,서울특별시 은평구 연서로46길 7 1110동 B1,02-351-3677,,,
나누리작은도서관,작은도서관,서울특별시,은평구,"토,일요일 법정공휴일",11:00-17:00,00:00-00:00,00:00-00:00,5,14,서울특별시 은평구 진관1로 55 마고정11단지아파트 308동 지층,02-353-1281,,,
두근두근작은도서관 (마고정 3단지 도서관),작은도서관,서울특별시,은평구,"토,일요일 법정공휴일",13:00-18:00,00:00-00:00,00:00-00:00,4,14,서울특별시 은평구 은평구 진관2로 90 마고정3단지아파트 314동 지층 문고,070-7325-1307,,,
물푸레작은도서관,작은도서관,서울특별시,은평구,일요일 법정공휴일,10:00-18:00,10:00-18:00,00:00-00:00,3,7,서울특별시 은평구 은평구 진관4로 48-51 상림마을 742동 1층,02-356-9410,,,
새자람작은도서관,작은도서관,서울특별시,은평구,일요일 법정공휴일,13:00-19:00,13:00-19:00,00:00-00:00,2,7,서울특별시 은평구 은평구 대서문길 36 116동 201호,02-383-5586,,,
포수마을 만화도서관,작은도서관,서울특별시,은평구,수요일 일요일,13:30-17:30,13:30-17:30,00:00-00:00,0,0,서울특별시 은평구 응암동 114-9,070-4963-5212,http://cafe.daum.net/GreenPasturesLibrary,,
응암도서관,작은도서관,서울특별시,은평구,월요일 법정공휴일,14:00-17:00,14:00-17:00,14:00-17:00,3,14,서울특별시 은평구 응암로16길 12-1 ?(응암동),02-359-6744,,37.60030754,126.9296354
푸른풀밭 작은도서관,작은도서관,서울특별시,은평구,"토,일요일 법정공휴일",10:00-17:00,00:00-00:00,00:00-00:00,2,7,서울특별시 은평구 은평로8길 18 2층 (응암동),070-4236-0699,http://www.hanseong.org/html/culture/01.asp,37.59883886,126.9200761
응암2동 매바위북카페 (응암2동 주민센터),작은도서관,서울특별시,은평구,"토,일요일 법정공휴일",09:00-18:00,00:00-00:00,00:00-00:00,3,7,서울특별시 은평구 백련산로 100 ?(응암동)?,02-351-5244,,37.59434778,126.9231689
꿈샘도서관,작은도서관,서울특별시,은평구,주말만 운영,00:00-00:00,09:00-18:00,09:00-18:00,3,7,서울특별시 은평구 응암로20길 23 ?(응암동),02-376-9191,,37.59262923,126.9206944
백련산힐스 작은도서관,작은도서관,서울특별시,은평구,법정공휴일,10:00-18:00,10:00-18:00,10:00-18:00,6,14,서울특별시 은평구 백련산로 38 힐스테이트 208동 지하1층,02-302-0950,,,
불광천 작은도서관 (응암정보도서관 운영),작은도서관,서울특별시,은평구,금요일 법정공휴일,09:00-18:00,09:00-18:00,09:00-18:00,3,14,서울특별시 은평구 불광천길 370 (불광천 휴게데크 위),02-308-3117,,37.5904858592,126.9144370871
서문어린이도서관,작은도서관,서울특별시,은평구,월요일 법정공휴일,09:00-17:00,09:00-17:00,09:00-17:00,3,7,서울특별시 은평구 가좌로10길 10,02-375-0025,https://library.ep.go.kr/usweb/USMN000.asp?C0BAC6F2BEEEB8B0C0CCBFB5BEEEB5B5BCADB0FC,37.59165203,126.9167501595
은평어린이영어도서관 (평생학습관 1층),작은도서관,서울특별시,은평구,일요일 법정공휴일,09:00-18:00,09:00-18:00,00:00-00:00,3,14,서울특별시 은평구 서오릉로 87 1층 (역촌동),070-8933-9912,https://library.ep.go.kr/usweb/USMN000.asp?BFAAB8B6B7E720C0DBC0BAB5B5BCADB0FC,37.6077869,126.9213295
역마루 작은도서관 (역촌동 주민센터),작은도서관,서울특별시,은평구,"토,일요일 법정공휴일",09:00-18:00,00:00-00:00,00:00-00:00,0,0,서울특별시 은평구 연서로 59 ?(역촌동)?,02-351-5304,,37.60435017,126.9151783
영광영재도서관,작은도서관,서울특별시,은평구,"월,토요일 법정공휴일",14:00-18:00,00:00-00:00,00:00-00:00,4,7,서울특별시 은평구 갈현로7가길 9 ? 제일영광교회(역촌동),070-4870-4363,http://club.cyworld.com/onlyjesusonly,,
예뜰도서관,작은도서관,서울특별시,은평구,월요일 법정공휴일,12:00-17:00,12:00-17:00,12:00-17:00,5,14,서울특별시 은평구 은평로3길 10 은광교회(역촌동),02-2640-3264,,37.59970722,126.9150085
꿈꾸는 작은도서관 (꿈꾸는 다락방),작은도서관,서울특별시,은평구,법정공휴일,10:00-20:00,10:00-20:00,10:00-20:00,2,3,서울특별시 은평구 진흥로 1길17,070-7518-2148,,37.6019962160,126.9185323915
초록길도서관,작은도서관,서울특별시,은평구,일요일,10:00-18:00,10:00-18:00,00:00-00:00,3,15,"서울특별시 은평구 연서로5길 28 ? (역촌동, 부호아파트)",02-357-7279,,37.6039323,126.9124473
꿈마루 작은 도서관,작은도서관,서울특별시,은평구,"매주 월, 토, 일",13:00-18:00,00:00-00:00,00:00-00:00,2,7,서울특별시 은평구 은평구 진흥로 5길 19,,,37.60262325,126.9188935
청소년문화공간JU역촌동  작은 도서관,작은도서관,서울특별시,은평구,"일요일, 월요일",09:00-20:00,09:00-20:00,00:00-00:00,0,0,서울특별시 은평구 서울시 은평구 역말로 14 3층,02-382-5652,,37.60549462,126.9120335
신사어린이도서관,작은도서관,서울특별시,은평구,일요일 법정공휴일,09:00-18:00,09:00-18:00,00:00-00:00,3,14,서울특별시 은평구 은평로 38 (신사 종합사회복지관 5층),070-4757-7026,,37.5980489370,126.9121456
시루뫼쉼터 (증산동 주민센터),작은도서관,서울특별시,은평구,"토,일요일 법정공휴일",13:00-18:00,00:00-00:00,00:00-00:00,3,14,서울특별시 은평구 증산서길 89 4층,02-351-5395,,37.58425844,126.907082
성산작은도서관,작은도서관,서울특별시,은평구,"토,일요일 법정공휴일",10:00-20:00,00:00-00:00,00:00-00:00,2,14,"서울특별시 은평구 증산서길 90 (증산동,성산교회)",02-305-9200,,37.5841771285,126.9073025923
서영 영어전문 작은도서관,작은도서관,서울특별시,은평구,월요일 법정공휴일,09:30-17:00,09:30-17:00,09:30-17:00,2,7,서울특별시 은평구 증산로11길 7-12,02-373-7494,,37.5865298724,126.9111446384
이아이야작은도서관,작은도서관,서울특별시,은평구,법정공휴일,09:00-19:00,09:00-19:00,09:00-19:00,0,0,서울특별시 은평구 증산서길 63-6,,,37.58251157,126.9052593
물빛마을작은도서관,작은도서관,서울특별시,은평구,"토,일요일 법정공휴일,복지관 휴관일",09:00-18:00,00:00-00:00,00:00-00:00,5,7,서울특별시 은평구 은평터널로 48 은평종합사회복지관 4층(수색동),070-4673-5116,,,
수색한숲도서관,작은도서관,서울특별시,은평구,"토,일요일 법정공휴일",10:00-17:00,00:00-00:00,00:00-00:00,5,7,서울특별시 은평구 은평터널로 66 수색한숲타운아파트 제2관리사무소 관리동1층,02-304-8684,,,
은평노인종합복지관 작은 도서관,작은도서관,서울특별시,은평구,일요일 법정공휴일,09:00-18:00,09:00-18:00,00:00-00:00,3,14,서울특별시 은평구 연서로 415 (은평노인 종합복지관1층),02-385-1351,,37.6322515345,126.9299824191
구산동 도서관마을,공공도서관,서울특별시,은평구,"월요일,법정공휴일",09:00-22:00,09:00-18:00,09:00-18:00,5,14,서울특별시 은평구 연서로 13길 29-23,02-357-0100,http://www.gsvlib.or.kr/,37.6095101902,126.9130879469
내를건너서숲으로도서관,공공도서관,서울특별시,은평구,"월요일,법정공휴일",09:00-22:00,09:00-18:00,09:00-18:00,5,14,서울특별시 은평구 증산로17길 51,02-307-6701,http://www.nslib.or.kr,37.591414,126.907816
은뜨락도서관,공공도서관,서울특별시,은평구,"월요일,법정공휴일",09:00-22:00,09:00-18:00,09:00-18:00,5,14,서울특별시 은평구 통일로 972,02-389-7635,https://www.edlib.or.kr,37.6301404375,126.9199290898
은평작은도서관,작은도서관,서울특별시,은평구,"토,일요일 법정공휴일",09:00-18:00,00:00-00:00,00:00-00:00,3,14,서울특별시 은평구 은평로 195 (은평구청 1층),02-351-8461,https://library.ep.go.kr/usweb/USMN000.asp?C0BAC6F2C0DBC0BAB5B5BCADB0FC,37.6024569702,126.9288235500
녹번만화도서관,작은도서관,서울특별시,은평구,매주월요일,09:00-18:00,09:00-18:00,09:00-18:00,0,0,서울특별시 은평구 은평로 245,02-356-1676,,37.6011055255,126.9351482968
다섯콩작은도서관,작은도서관,서울특별시,은평구,"월요일,     법정공휴일",11:00-19:00,11:00-17:00,11:00-17:00,5,15,서울특별시 은평구 서오릉로4길 10. 성암비전센터 2층,02-384-1184,http://www.sach.or.kr/page-town.phpMcode16,,
어린이도서관 동네북,작은도서관,서울특별시,은평구,일요일,13:00-18:00,11:00-18:00,11:00-18:00,5,14,서울특별시 은평구 진흥로 174?(녹번동) 양광비젼센터2층?,,http://cafe.naver.com/ehdspqnr2013,,
Book Bridge 작은 도서관,작은도서관,서울특별시,은평구,"매주 월, 수",10:00-15:00,00:00-00:00,00:00-00:00,2,14,서울특별시 은평구 서울시 은평구 통일로 590 B동 204호,,,37.59957186,126.9368368
북한산 힐스테이트  1차 솔숲문고,작은도서관,서울특별시,은평구,일요일 법정공휴일,10:00-15:00,10:00-10:00,12:00-00:00,2,7,서울특별시 은평구 불광로2길 33 1110동 지하 주차장1층,02-356-4620,,,
은광교회도서관,작은도서관,서울특별시,은평구,"월요일,     법정공휴일",10:00-18:00,10:00-18:00,10:00-18:00,2,7,서울특별시 은평구 통일로68길 11,02-383-2116,,37.6127035625,126.9297845
바다의 별 작은도서관,작은도서관,서울특별시,은평구,월요일,09:00-18:00,09:00-18:00,09:00-18:00,2,14,서울특별시 은평구 통일로 786(불광동성당),02-355-0545,,37.6152603469,126.9264056222
비전뜰 도서관,작은도서관,서울특별시,은평구,월요일법정공휴일,13:00-18:00,13:00-18:00,13:00-18:00,3,14,서울특별시 은평구 통일로92길 6,02-388-4741,,37.6257009642,126.9207993096
다니엘 작은도서관,작은도서관,서울특별시,은평구,"토,일요일       법정공휴일",13:00-17:00,00:00-00:00,00:00-00:00,2,7,서울특별시 은평구 연서로41길 13-3 부림교회,02-385-0664,,37.62578369,126.9275146
천주교연신내성당 북카페,작은도서관,서울특별시,은평구,월요일,09:00-18:00,09:00-18:00,09:00-18:00,0,0,서울특별시 은평구 연서로43길 6,02-353-6307,https://library.ep.go.kr/usweb/USMN000.asp?B0A5C7F61B5BFB9AEC8ADC0C7C1FD,37.6272305269,126.9287908705
꿈담은 작은 도서관,작은도서관,서울특별시,은평구,일요일,09:00-18:00,10:00-17:00,00:00-00:00,10,5,서울특별시 은평구 은평구 연서로41길 4,,,37.62566023,126.9285396
갈현1동 고리마루작은도서관 (갈현1동 주민센터),작은도서관,서울특별시,은평구,"토,일요일 법정공휴일",09:00-18:00,00:00-00:00,00:00-00:00,3,7,서울특별시 은평구 갈현로 301(갈현동),02-351-5116,https://library.ep.go.kr/usweb/USMN000.asp?C8BFB0E6B0F1B8B6C0BBB9AEB0ED,37.6236871299,126.916679
정임도서관,작은도서관,서울특별시,은평구,월요일 법정공휴일,10:00-14:00,14:00-17:00,14:00-17:00,2,14,서울특별시 은평구 통일로 951 서광교회 (갈현동),02-387-0691,,37.62781878,126.9192927
효경골 마을문고 (갈현2동 주민센터),작은도서관,서울특별시,은평구,"토,일요일 법정공휴일",09:00-18:00,00:00-00:00,00:00-00:00,3,14,서울특별시 은평구 연서로27길 31-6 (갈현동),02-351-5126,,37.6186769946,126.9157776128
청소년도서관 작공,작은도서관,서울특별시,은평구,일요일 법정공휴일,10:00-21:00,10:00-21:00,00:00-00:00,3,14,서울특별시 은평구 연서로21길 16 (갈현동),070-7657-1533,,37.61491999,126.916186
무지개영어도서관,작은도서관,서울특별시,은평구,월요일 법정공휴일,13:00-18:00,13:00-18:00,13:00-18:00,3,3,서울특별시 은평구 서오릉로21길 11 ?(구산동),02-383-4880,https://library.ep.go.kr/usweb/USMN000.asp?B4EBC1B6B2DEB3AAB9ABBEEEB8B0C0CCB5B5BCADB0FC,37.61494677,126.9075233
대조꿈나무어린이도서관,작은도서관,서울특별시,은평구,일요일  법정공휴일,09:00-18:00,09:00-18:00,00:00-00:00,5,14,서울특별시 은평구 연서로20길 24-6 ?(대조동),02-382-3959,,37.61387527,126.9207138
대조제일교회  꿈꾸는 작은도서관,작은도서관,서울특별시,은평구,"월요일,토요일 법정공휴일",13:30-17:00,00:00-00:00,00:00-00:00,2,14,서울특별시 은평구 역말로10가길 22-12 ?(대조동)?,02-386-6680,https://library.ep.go.kr/usweb/USMN000.asp?C0C0BECF1B5BF20B9AEC8ADC0C720C1FD20B9AEB0ED,37.61191616,126.9253585
징검다리 도서관,작은도서관,서울특별시,은평구,"월,일요일",09:00-18:00,09:00-18:00,00:00-00:00,2,7,서울특별시 은평구 서오릉로 132 ?(대조동),02-359-6507,,37.61079028,126.918344
은평문화의집 작은도서관 (응암1동 주민센터),작은도서관,서울특별시,은평구,"토,일요일 법정공휴일",09:00-18:00,00:00-00:00,00:00-00:00,3,5,서울특별시 은평구 백련산로 179 ?(응암동),02-351-5214,http://www.eungam.or.kr/2012/05mission06.php,37.60075892,126.926904
쌍문3동 공립 작은도서관,작은도서관,서울특별시,도봉구,"매주토, 일요일",10:00-17:00,00:00-00:00,00:00-00:00,5,14,서울특별시 도봉구 도봉구 노해로44길 9,02-2091-5902,,37.6489437,127.0279086
쌍문4동 공립 작은도서관,작은도서관,서울특별시,도봉구,"매주토, 일요일",10:00-17:00,00:00-00:00,00:00-00:00,5,14,서울특별시 도봉구 도봉구 시루봉로 62-7,02-2091-5903,,37.6564188,127.0283688
창1동 공립 작은도서관,작은도서관,서울특별시,도봉구,"매주토, 일요일",10:00-17:00,00:00-00:00,00:00-00:00,5,14,서울특별시 도봉구 도봉구 해등로 46,02-2091-5907,,37.648330,127.043780
창2동 공립 작은도서관,작은도서관,서울특별시,도봉구,"매주토, 일요일",10:00-17:00,00:00-00:00,00:00-00:00,5,14,서울특별시 도봉구 도봉구 덕릉로 59길 73-3,02-2091-5908,,37.6413898,127.0356396
창3동 공립 작은도서관,작은도서관,서울특별시,도봉구,"매주토, 일요일",14:00-17:00,00:00-00:00,00:00-00:00,5,14,서울특별시 도봉구 도봉구 덕릉로62길 89,02-2091-5909,,37.638110,127.042870
창4동 공립 작은도서관,작은도서관,서울특별시,도봉구,"매주토, 일요일",14:00-17:00,00:00-00:00,00:00-00:00,5,14,서울특별시 도봉구 도봉구 노해로 390,02-2091-5910,,37.652200,127.051540
창5동 공립 작은도서관,작은도서관,서울특별시,도봉구,"매주토, 일요일",10:00-17:00,00:00-00:00,00:00-00:00,5,14,서울특별시 도봉구 도봉구 도봉로 136 나길 20,02-2091-5911,,37.6562098,127.0434809
북서울중학교 도서관,학교도서관,서울특별시,도봉구,"매주토,일요일",09:00-17:00,00:00-00:00,00:00-00:00,5,14,서울특별시 도봉구 도봉구 도봉로169가길 33,02-956-1108,,37.6813005,127.0430239
창북중학교 도서관,학교도서관,서울특별시,도봉구,매주월요일,13:00-19:00,00:00-00:00,00:00-00:00,5,14,서울특별시 도봉구 도봉구 노해로 62길 33,070-8230-5263,,37.6494708,127.0385766
도봉구청사 행복작은도서관,작은도서관,서울특별시,도봉구,"매주토, 일요일",09:00-18:00,00:00-00:00,00:00-00:00,3,7,서울특별시 도봉구 도봉구 마들로 656,02-2091-2278,,37.6686287,127.0470496
서울특별시교육청도봉도서관(종합자료실),공공도서관,서울특별시,도봉구,"매월둘째, 넷째 수요일",09:00-18:00,09:00-17:00,09:00-17:00,11,14,서울특별시 도봉구 도봉구 삼양로 556(쌍문동),02-6714-7400,http://dblib.sen.go.kr/,37.6525847,127.0129824
서울특별시교육청도봉도서관(어린이자료실),공공도서관,서울특별시,도봉구,"매월둘째, 넷째 수요일",09:00-18:00,09:00-17:00,09:00-17:00,11,14,서울특별시 도봉구 도봉구 삼양로 556(쌍문동),02-6714-7400,http://dblib.sen.go.kr/,37.652570,127.012900
서울특별시교육청도봉도서관(디지털자료실),공공도서관,서울특별시,도봉구,"매월둘째, 넷째 수요일",09:00-22:00,09:00-18:00,09:00-18:00,2,14,서울특별시 도봉구 도봉구 삼양로 556(쌍문동),02-6714-7400,http://dblib.sen.go.kr/,37.6527461,127.0129663
도봉문화정보도서관(종합자료실),공공도서관,서울특별시,도봉구,매주화요일,09:00-22:00,09:00-18:00,09:00-18:00,3,14,서울특별시 도봉구 도봉구 덕릉로 315 (창동),02-900-1835,http://www.unilib.dobong.kr/,37.6445808,127.0438827
도봉문화정보도서관(어린이열람실),공공도서관,서울특별시,도봉구,매주화요일,09:00-18:00,09:00-17:00,09:00-17:00,3,14,서울특별시 도봉구 도봉구 덕릉로 315 (창동),02-900-1835,http://www.unilib.dobong.kr/,37.6445808,127.0438827
도봉어린이문화정보도서관(영 유아),공공도서관,서울특별시,도봉구,매주화요일,09:00-18:00,09:00-17:00,09:00-17:00,5,14,서울특별시 도봉구 도봉구 노해로69길 151,02-995-4171,http://www.unilib.dobong.kr/,37.6590072,127.0494699
도봉 기적의 도서관,공공도서관,서울특별시,도봉구,국가지정공휴일,09:00-18:00,09:00-17:00,09:00-17:00,0,0,서울특별시 도봉구 도봉구 마들로 797,,,37.6807721,127.0502436
도봉어린이문화정보도서관(디지털자료실),공공도서관,서울특별시,도봉구,매주화요일,09:00-18:00,09:00-17:00,09:00-17:00,0,0,서울특별시 도봉구 도봉구 노해로69길 151,02-995-4171,http://www.unilib.dobong.kr/,37.6590072,127.0494699
"도봉어린이문화정보센터(자료열람실, 잉글리시 아일랜드)",공공도서관,서울특별시,도봉구,매주화요일,09:00-18:00,09:00-17:00,09:00-17:00,5,14,서울특별시 도봉구 도봉구 노해로69길 151,02-995-4171,http://www.unilib.dobong.kr/,37.6590072,127.0494699
학마을도서관 (종합자료실),공공도서관,서울특별시,도봉구,매주월요일,09:00-20:00,09:00-17:00,09:00-17:00,5,14,서울특별시 도봉구 도봉구 시루봉로 128,02-955-0655,http://www.unilib.dobong.kr/,37.6621078,127.0278197
학마을도서관 (어린이 자료실),공공도서관,서울특별시,도봉구,매주월요일,09:00-18:00,09:00-17:00,09:00-17:00,5,14,서울특별시 도봉구 도봉구 시루봉로 128,02-955-0655,http://www.unilib.dobong.kr/,37.662110,127.0278200
방학동영유아플라자,공공도서관,서울특별시,도봉구,매주일요일,09:30-17:30,10:00-15:00,00:00-00:00,5,14,서울특별시 도봉구 도봉구 방학로 12길 28 (방학동),02-3494-3557,http://www.doccic.go.kr/youngua/,37.663230,127.0303300
창동영유아플라자,공공도서관,서울특별시,도봉구,매주월요일,09:30-17:30,00:00-00:00,10:00-15:00,5,14,서울특별시 도봉구 도봉구 우이천로4길 24-5 (창동),02-994-3372,http://www.doccic.go.kr/youngua/,37.633510,127.041100
무수골 도서관,어린이도서관,서울특별시,도봉구,매주월요일,09:00-18:00,09:00-17:00,09:00-17:00,5,14,서울특별시 도봉구 도봉구 도봉로175길 10,02-3492-0078,http://www.unilib.dobong.kr/,37.6829589,127.0428608
방학1동 공립 작은도서관,작은도서관,서울특별시,도봉구,"매주토, 일요일",10:00-17:00,00:00-00:00,00:00-00:00,5,14,서울특별시 도봉구 도봉구 방학로2길 27,02-2091-5904,,37.6641869,127.0406367
방학2동 공립 작은도서관,작은도서관,서울특별시,도봉구,"매주토, 일요일",10:00-17:00,00:00-00:00,00:00-00:00,5,14,서울특별시 도봉구 도봉구 시루봉로 226,02-2091-5905,,37.668177,127.0350425
방학3동 공립 작은도서관,작은도서관,서울특별시,도봉구,"매주월, 일요일",10:00-17:00,10:00-13:00,00:00-00:00,5,14,서울특별시 도봉구 도봉구 해등로32길 80,02-2091-5906,,37.659890,127.023820
도봉1동 공립 작은도서관,작은도서관,서울특별시,도봉구,"매주토, 일요일",10:00-17:00,00:00-00:00,00:00-00:00,5,14,서울특별시 도봉구 도봉구 도봉로169 나길 22,02-2091-5912,,37.6786704,127.0433569
도봉2동 공립 작은도서관,작은도서관,서울특별시,도봉구,"매주토, 일요일",14:00-17:00,00:00-00:00,00:00-00:00,5,14,서울특별시 도봉구 도봉구 마들로 668,02-2091-5913,,37.6696229,127.0465415
쌍문1동 공립 작은도서관,작은도서관,서울특별시,도봉구,"매주토, 일요일",10:00-17:00,00:00-00:00,00:00-00:00,5,14,서울특별시 도봉구 도봉구 노해로 147,02-2091-5900,,37.6479992,127.0260364
쌍문2동 공립 작은도서관,작은도서관,서울특별시,도봉구,"매주토, 일요일",14:00-17:00,00:00-00:00,00:00-00:00,5,14,서울특별시 도봉구 도봉구 방학로3길 117,02-2091-5901,,37.6580211,127.0387508
꿈을이루는작은도서관,작은도서관,서울특별시,마포구,"일요일, 공휴일",10:00-19:00,10:00-16:00,00:00-00:00,5,14,"서울특별시 마포구 마포대로7길 18, 2층",02-706-4785,https://mplib.mapo.go.kr/libsmall,37.547105,126.952155
아름드리작은도서관,작은도서관,서울특별시,마포구,"일요일, 공휴일",10:00-19:00,10:00-16:00,00:00-00:00,5,14,"서울특별시 마포구 방울내로7길 11, 1층",02-322-8639,https://mplib.mapo.go.kr/libsmall,37.560313,126.902316
해오름작은도서관,작은도서관,서울특별시,마포구,"일요일, 공휴일",10:00-19:00,10:00-16:00,00:00-00:00,5,14,"서울특별시 마포구 신촌로26길 10, 2층",02-714-8080,https://mplib.mapo.go.kr/libsmall,37.555848,126.942368
성메작은도서관,작은도서관,서울특별시,마포구,"일요일, 공휴일",10:00-19:00,10:00-16:00,00:00-00:00,5,14,"서울특별시 마포구 월드컵북로30길 22, 2층",02-373-4785,https://mplib.mapo.go.kr/libsmall,37.568610,126.908975
성산글마루작은도서관,작은도서관,서울특별시,마포구,"일요일, 공휴일",10:00-19:00,10:00-16:00,00:00-00:00,5,14,"서울특별시 마포구 월드컵북로 235, 3층",02-373-2900,https://mplib.mapo.go.kr/libsmall,37.569702,126.901420
늘푸른소나무작은도서관,작은도서관,서울특별시,마포구,"일요일, 공휴일",09:00-18:00,10:00-16:00,00:00-00:00,5,14,"서울특별시 마포구 백범로 227, 3층",02-718-4785,https://mplib.mapo.go.kr/libsmall,37.542233,126.955494
복사골작은도서관,작은도서관,서울특별시,마포구,"일요일, 공휴일",10:00-19:00,10:00-16:00,00:00-00:00,5,14,"서울특별시 마포구 도화4길 53, 3~4층",02-716-5800,https://mplib.mapo.go.kr/libsmall,37.539535,126.951922
용강동작은도서관,작은도서관,서울특별시,마포구,"일요일, 공휴일",10:00-19:00,10:00-16:00,00:00-00:00,5,14,"서울특별시 마포구 토정로31길 31, 2층",02-716-4785,https://mplib.mapo.go.kr/libsmall,37.542328,126.942830
초록숲작은도서관,작은도서관,서울특별시,마포구,"일요일, 공휴일",09:00-18:00,10:00-16:00,00:00-00:00,5,14,"서울특별시 마포구 마포대로11길 44-81, B1층",02-313-4785,https://mplib.mapo.go.kr/libsmall,37.552161,126.951225
마포푸르메어린이도서관,공공도서관,서울특별시,마포구,"일요일, 공휴일",09:00-18:00,10:00-16:00,00:00-00:00,5,14,"서울특별시 마포구 월드컵북로 494, 1층",02-6070-9286,https://mplib.mapo.go.kr/libsmall,37.584644,126.880515
마포중앙도서관,공공도서관,서울특별시,마포구,"월요일, 공휴일",09:00-22:00,09:00-22:00,00:00-00:00,5,14,서울특별시 마포구 성산로 128,02-3153-5800,https://mplib.mapo.go.kr/mcl,37.564019,126.908442
마포구립하늘도서관,공공도서관,서울특별시,마포구,"금요일, 공휴일",09:00-22:00,09:00-18:00,00:00-00:00,5,14,"서울특별시 마포구 월드컵로 212, 12층",02-3153-6260,https://mplib.mapo.go.kr/skylib,37.566379,126.901616
마포구립서강도서관,공공도서관,서울특별시,마포구,"화요일, 공휴일",09:00-22:00,09:00-20:00,00:00-00:00,5,14,"서울특별시 마포구 독막로165, 3~5층",02-3141-7053,https://mplib.mapo.go.kr/sglib,37.547737,126.932059
마포어린이영어도서관,어린이도서관,서울특별시,마포구,"일요일, 공휴일",10:00-19:00,10:00-18:00,00:00-00:00,4,14,"서울특별시 마포구 도화4길 53, 2층",02-716-3987,https://mplib.mapo.go.kr/englib,37.539535,126.951922
꿈나래어린이영어도서관,어린이도서관,서울특별시,마포구,"일요일, 공휴일",10:00-19:00,10:00-18:00,00:00-00:00,4,14,"서울특별시 마포구 월드컵로13길 80, 2층",02-323-1841,https://mplib.mapo.go.kr/englib,37.555235,126.905684
성북정보도서관,공공도서관,서울특별시,성북구,"매월 첫째, 셋째 주 월요일 및 법정공휴일",09:00-18:00,09:00-18:00,09:00-18:00,5,14,서울특별시 성북구 화랑로 18자길 13,02-962-1081,https://www.sblib.seoul.kr/sblib/,37.6049514,127.0505858
아리랑도서관,공공도서관,서울특별시,성북구,"매월 둘째, 넷째 주 월요일 및 법정공휴일",09:00-18:00,09:00-18:00,09:00-18:00,5,14,서울특별시 성북구 아리랑로 82,02-3291-4990,https://www.sblib.seoul.kr/sblib/,37.60005935,127.0139286
해오름도서관,공공도서관,서울특별시,성북구,매주 월요일 및 법정공휴일,09:00-18:00,09:00-18:00,09:00-18:00,5,14,서울특별시 성북구 성북로4길 52,02-6925-7002,https://www.sblib.seoul.kr/sblib/,37.59290593,127.0094026
종암동새날도서관,공공도서관,서울특별시,성북구,매주 월요일 및 법정공휴일,09:00-18:00,09:00-18:00,09:00-18:00,5,14,서울특별시 성북구 종암로 98-8,02-6925-6920,https://www.sblib.seoul.kr/sblib/,37.5990361,127.035222
서경로꿈마루도서관,작은도서관,서울특별시,성북구,매주 월요일 및 법정공휴일,09:00-18:00,09:00-18:00,09:00-18:00,5,14,서울특별시 성북구 서경로 94-1,02-6925-0300,https://www.sblib.seoul.kr/sblib/,37.61146229,127.0138628
석관동미리내도서관,공공도서관,서울특별시,성북구,매주 월요일 및 법정공휴일,09:00-18:00,09:00-18:00,09:00-18:00,5,14,서울특별시 성북구 한천로66길 203,02-960-5067,https://www.sblib.seoul.kr/sblib/,37.6134793,127.0654922
달빛마루도서관,공공도서관,서울특별시,성북구,매주 월요일 및 법정공휴일,09:00-18:00,09:00-18:00,09:00-18:00,5,14,서울특별시 성북구 종암로 167,02-911-0993,https://www.sblib.seoul.kr/sblib/,37.6050584,127.0309893
정릉도서관,공공도서관,서울특별시,성북구,매주 월요일 및 법정공휴일,09:00-18:00,09:00-18:00,09:00-18:00,5,14,서울특별시 성북구 정릉로 242,02-2038-9928,https://www.sblib.seoul.kr/sblib/,37.60474125,127.0105819
청수도서관,공공도서관,서울특별시,성북구,매주 월요일 및 법정공휴일,09:00-18:00,09:00-18:00,09:00-18:00,5,14,서울특별시 성북구 보국문로 16가길 20,02-2038-4423,https://www.sblib.seoul.kr/sblib/,37.61174732,127.0107732
아리랑어린이도서관,공공도서관,서울특별시,성북구,"매월 둘째, 넷째 주 월요일 및 법정공휴일",09:00-18:00,09:00-18:00,09:00-18:00,5,14,서울특별시 성북구 아리랑로 75,02-6906-9362,https://www.sblib.seoul.kr/sblib/,37.59883044,127.0136249
이음도서관,작은도서관,서울특별시,성북구,매주 토요일 일요일 및 법정공휴일,09:00-18:00,00:00-00:00,09:00-18:00,5,14,서울특별시 성북구 보문로 168,02-6954-0023,https://www.sblib.seoul.kr/sblib/,37.5894118,127.0168327
월곡꿈그림도서관,공공도서관,서울특별시,성북구,매주 월요일 및 법정공휴일,09:00-18:00,09:00-18:00,09:00-18:00,5,14,서울특별시 성북구 화랑로 13길 17,02-6549-1553,https://www.sblib.seoul.kr/sblib/,37.60507324,127.0413674
장위행복누림도서관,공공도서관,서울특별시,성북구,"매주일요일,월요일 및 법정공휴일",09:00-18:00,09:00-18:00,09:00-18:00,5,14,서울특별시 성북구 장위로21다길 53,02-6906-9390,https://www.sblib.seoul.kr/sblib/,37.61589067,127.045836
성북길빛도서관,공공도서관,서울특별시,성북구,매주 월요일 및 법정공휴일,09:00-18:00,09:00-18:00,09:00-18:00,5,14,서울특별시 성북구 숭인로 8길 52,02-6949-0031,https://www.sblib.seoul.kr/sblib/,37.60996089,127.026443
강북문화정보도서관,공공도서관,서울특별시,강북구,매월둘째넷째월요일정부지정공휴일,09:00-23:00,09:00-23:00,09:00-23:00,5,14,서울특별시 강북구 오현로 145 (번동),02-944-3100,http://www.gblib.or.kr/gangbuk,37.625174,127.0360815951
강북청소년문화정보도서관,공공도서관,서울특별시,강북구,매월둘째넷째월요일정부지정공휴일,09:00-22:00,09:00-22:00,09:00-22:00,5,14,서울특별시 강북구 삼양로54길 68 (미아동),02-944-3140,http://www.gblib.or.kr/youth,37.6230802776,127.0215541213
솔샘문화정보도서관,공공도서관,서울특별시,강북구,매월첫째셋째월요일정부지정공휴일,09:00-22:00,09:00-22:00,09:00-22:00,5,14,서울특별시 강북구 솔샘로 177 (미아동),02-944-3150,http://www.gblib.or.kr/solsem,37.6204759388,127.012452
송중문화정보도서관,공공도서관,서울특별시,강북구,매월첫째셋째월요일정부지정공휴일,09:00-22:00,09:00-22:00,09:00-22:00,5,14,서울특별시 강북구 도봉로20나길 6 (미아동),02-944-3160,http://www.gblib.or.kr/songjung,37.618342,127.0299391507
수유문화정보도서관,공공도서관,서울특별시,강북구,매월첫째셋째월요일정부지정공휴일,09:00-22:00,09:00-22:00,09:00-22:00,5,14,서울특별시 강북구 삼양로 299 (수유동),02-944-3170,http://www.gblib.or.kr/mia,37.6300509732,127.017543
중곡문화체육센터도서관,공공도서관,서울특별시,광진구,"매월 첫째, 셋째 월요일, 공휴일",09:00-22:00,09:00-17:00,00:00-00:00,5,21,서울특별시 광진구 능동로 433(중곡동),02-3408-4900,http://www.gwangjinlib.seoul.kr/,37.5677777604,127.0848034472
용답동어린이작은도서관,공공도서관,서울특별시,성동구,"주말, 법정공휴일",09:00-18:00,00:00-00:00,00:00-00:00,3,14,서울특별시 성동구 용답중앙 23길 20 (용답동),02-2286-7523,https://www.sdlib.or.kr/lib15/,37.564066,127.055517
송정동늘푸른작은도서관,공공도서관,서울특별시,성동구,"주말, 법정공휴일",09:00-18:00,00:00-00:00,00:00-00:00,3,14,서울특별시 성동구 송정 14길 19 (송정동),02-2286-7509,https://www.sdlib.or.kr/lib14/,37.5510117564,127.068522
성수2가제3동작은도서관,공공도서관,서울특별시,성동구,"주말, 법정공휴일",14:00-17:00,00:00-00:00,00:00-00:00,3,14,서울특별시 성동구 광나루로 2길 35 (성수동2가),02-2286-7484,https://www.sdlib.or.kr/lib13/,37.5482220300,127.0552458980
성수2가제1동어린이작은도서관,공공도서관,서울특별시,성동구,"주말, 법정공휴일",09:00-18:00,00:00-00:00,00:00-00:00,3,14,서울특별시 성동구 뚝섬로 385-19 (성수동2가),02-2286-7478,https://www.sdlib.or.kr/lib12/,37.539501,127.054050
성수1가제2동어린이작은도서관,공공도서관,서울특별시,성동구,"주말, 법정공휴일",13:00-17:00,00:00-00:00,00:00-00:00,3,14,서울특별시 성동구 왕십리로 5길 3 (성수동1가),02-2286-7443,https://www.sdlib.or.kr/lib11/,37.5464030037,127.0443495423
성수1가제1동작은도서관,공공도서관,서울특별시,성동구,"주말, 법정공휴일",09:00-18:00,00:00-00:00,00:00-00:00,3,14,서울특별시 성동구 뚝섬로 3길 18 (성수동1가),02-2286-7422,https://www.sdlib.or.kr/lib10/,37.542037,127.049686
옥수동북카페,공공도서관,서울특별시,성동구,"주말, 법정공휴일",09:00-18:00,00:00-00:00,00:00-00:00,3,14,서울특별시 성동구 독서당로 205-1 (옥수동),02-2286-7418,https://www.sdlib.or.kr/lib09/,37.543670,127.013486
금호4가동어린이작은도서관,공공도서관,서울특별시,성동구,"주말, 법정공휴일",09:00-18:00,00:00-00:00,00:00-00:00,3,14,서울특별시 성동구 독서당로 46길 26 (금호동4가),02-2286-7383,https://www.sdlib.or.kr/lib08/,37.547171,127.022310
"금호2,3가동어린이작은도서관",공공도서관,서울특별시,성동구,"주말, 법정공휴일",09:00-16:00,00:00-00:00,00:00-00:00,3,14,서울특별시 성동구 무수막 18길1 (금호동2가),02-2286-7374,https://www.sdlib.or.kr/lib07/,37.553233,127.0209110953
금호1가동우리동네북카페책단지꿀단지,공공도서관,서울특별시,성동구,"주말, 법정공휴일",09:00-18:00,00:00-00:00,00:00-00:00,3,14,서울특별시 성동구 행당로 15 (금호동1가),02-2286-7343,https://www.sdlib.or.kr/lib06/,37.554834,127.021637
응봉동어린이작은도서관,공공도서관,서울특별시,성동구,"주말, 법정공휴일",10:00-17:00,00:00-00:00,00:00-00:00,3,14,서울특별시 성동구 독서당로 424 (응봉동),02-2286-7335,https://www.sdlib.or.kr/lib05/,37.553118,127.033401
행당제2동어린이작은도서관,공공도서관,서울특별시,성동구,"주말, 법정공휴일",09:00-18:00,00:00-00:00,00:00-00:00,3,14,서울특별시 성동구 행당로 9길 9 (행당동),02-2286-7567,https://www.sdlib.or.kr/lib04/,37.5582215718,127.029361
사근동어린이놀이터도서관,공공도서관,서울특별시,성동구,"주말, 법정공휴일",09:00-18:00,00:00-00:00,00:00-00:00,3,14,서울특별시 성동구 사근동길 37 (사근동),02-2286-7271,https://www.sdlib.or.kr/lib03/,37.5614997515,127.0453273317
마장동작은도서관,공공도서관,서울특별시,성동구,"주말, 법정공휴일",14:00-18:00,00:00-00:00,00:00-00:00,3,14,서울특별시 성동구 마장로 42길11 (마장동),02-2286-7256,https://www.sdlib.or.kr/lib02/,37.5663182489,127.0454072202
왕십리제2동작은도서관,공공도서관,서울특별시,성동구,"주말, 법정공휴일",09:00-18:00,00:00-00:00,00:00-00:00,3,14,서울특별시 성동구 무학봉길 69 (하왕십리동),02-2286-7223,https://www.sdlib.or.kr/lib01/,37.561057,127.0305138351
왕십리도선동희망문고,공공도서관,서울특별시,성동구,법정공휴일,09:00-18:00,10:00-16:00,00:00-00:00,3,14,서울특별시 성동구 마장로 141 (상왕십리동),02-2286-7214,http://wangsimnidoseon.sd.go.kr/,37.5678739340,127.0255270951
성동구립청계도서관,공공도서관,서울특별시,성동구,"매주 월요일, 법정공휴일",09:00-20:00,09:00-20:00,00:00-00:00,5,14,서울특별시 성동구 마장로 141,02-2204-7580,https://www.sdlib.or.kr/cg/,37.5678739340,127.0255270951
성동구립성수도서관,공공도서관,서울특별시,성동구,"매주 월요일, 법정공휴일",08:00-23:00,09:00-20:00,09:00-18:00,5,14,서울특별시 성동구 뚝섬로 1길 43,02-2204-7592,https://www.sdlib.or.kr/SS/,37.5454289206,127.0469470775
성동구립무지개도서관,공공도서관,서울특별시,성동구,"매주 월요일, 법정공휴일",09:00-21:00,09:00-21:00,09:00-21:00,5,14,서울특별시 성동구 고산자로 270,02-2286-6025,http://www.sdlib.or.kr/rainbow,37.5634235900,127.0369663587
성동구립용답도서관,공공도서관,서울특별시,성동구,"매주 월요일, 법정공휴일",07:00-22:00,09:00-20:00,09:00-18:00,5,14,서울특별시 성동구 용답 중앙3길 10,02-2204-6470,https://www.sdlib.or.kr/YD/,37.5666999281,127.051314
성동구립금호도서관,공공도서관,서울특별시,성동구,"매주 월요일, 법정공휴일",07:00-22:00,09:00-20:00,09:00-18:00,5,14,서울특별시 성동구 난계로 20,02-2204-6450,https://www.sdlib.or.kr/KH/,37.5541284626,127.0248931731
성동구립도서관,공공도서관,서울특별시,성동구,"매주 월요일, 법정공휴일",07:00-24:00,07:00-24:00,09:00-18:00,5,14,서울특별시 성동구 고산자로 10길9,02-2204-6420,https://www.sdlib.or.kr/SD/,37.5591787050,127.0349587296
성동자활센터푸른하늘공부방청소년작은도서관,공공도서관,서울특별시,성동구,"주말, 법정공휴일",10:00-20:00,00:00-00:00,00:00-00:00,3,14,서울특별시 성동구 독서당로 272 금호대우임대아파트 관리사무소 지하 3층 (옥수동),070-4920-8859,http://sdjh.or.kr/,37.546026,127.019520
평강마을도서관,작은도서관,서울특별시,광진구,매주 일요일,09:00-18:00,09:00-18:00,00:00-00:00,2,21,서울특별시 광진구 자양번영로4길 13(자양동),02-453-6238,,37.5315743763,127.0760916014
푸른꿈도서관,작은도서관,서울특별시,광진구,없음,10:00-18:00,10:00-18:00,00:00-00:00,3,7,서울특별시 광진구 자양로32길 53(구의동),02-446-8411,,37.5443638879,127.0880267748
광장현대파크빌도서관,작은도서관,서울특별시,광진구,"매주 토요일, 일요일",09:00-22:00,00:00-00:00,00:00-00:00,0,0,서울특별시 광진구 아차산로 549(광장동),02-458-7480,,37.5433581622,127.1017445096
중곡교회작은도서관,작은도서관,서울특별시,광진구,"매주 월요일, 일요일",11:00-17:00,11:00-17:00,00:00-00:00,2,7,서울특별시 광진구 긴고랑로36길 56(중곡동),02-452-4985,,37.5569649607,127.0907849728
아름드리작은도서관,작은도서관,서울특별시,광진구,"매주 토요일, 일요일",09:00-18:00,00:00-00:00,00:00-00:00,3,7,서울특별시 광진구 워커힐로 93(구의동),02-446-1237,,37.5505369520,127.0979156802
어린이도서관주영심나무,작은도서관,서울특별시,광진구,"매주 토요일, 일요일",13:00-18:00,00:00-00:00,00:00-00:00,0,0,서울특별시 광진구 용마산로1길91(중곡동),02-457-8822,,37.5562458875,127.0835680922
아차산아래작은도서관놀자,작은도서관,서울특별시,광진구,"매주 월요일, 일요일",10:00-19:00,12:00-18:00,00:00-00:00,3,7,서울특별시 광진구 자양로50가길 45(구의동),02-2272-2011,,37.5538554450,127.0944524651
하람도서관,작은도서관,서울특별시,광진구,"매주 월요일, 토요일, 일요일",10:00-17:00,00:00-00:00,00:00-00:00,3,14,서울특별시 광진구 용마산로 16길 18(중곡동),02-475-7791,,37.5621277199,127.0883464750
운룡도서관,작은도서관,서울특별시,광진구,"매주 토요일, 일요일",10:00-18:00,00:00-00:00,00:00-00:00,3,14,서울특별시 광진구 자양로43길 85(중곡동),02-454-3431,,37.5541981838,127.0893601832
더바움문화예술작은도서관,작은도서관,서울특별시,광진구,매주 일요일,11:00-19:00,11:00-18:00,00:00-00:00,5,7,서울특별시 광진구 구의로 39(구의동),02-443-6366,,37.5414145366,127.0897296411
성신비전스쿨도서관,작은도서관,서울특별시,광진구,매주 월요일,11:00-17:00,10:00-18:00,00:00-00:00,3,14,서울특별시 광진구 동일로 160(화양동),02-463-5959,,37.5464609950,127.0666556281
이룸도서관,작은도서관,서울특별시,광진구,없음,13:00-18:00,13:00-18:00,00:00-00:00,3,14,서울특별시 광진구 용마산로 49(중곡동),02-446-0691,,37.5579872960,127.0875991442
사람아이앤지작은도서관,작은도서관,서울특별시,광진구,매주 일요일,10:30-20:30,10:30-20:30,00:00-00:00,3,7,서울특별시 광진구 천호대로 691(구의동),02-823-4514,,37.5499364826,127.0916862939
샘터작은도서관,작은도서관,서울특별시,광진구,"매주 토요일, 일요일",13:00-19:00,13:00-19:00,00:00-00:00,3,7,서울특별시 광진구 용마산로24길 10(중곡동),02-446-0191,,37.5651522013,127.0873539922
국제문학작은도서관,작은도서관,서울특별시,광진구,매주 일요일,13:00-17:00,13:00-17:00,00:00-00:00,3,7,서울특별시 광진구 광나루로15길 41(군자동),,,37.5501281270,127.0696600373
사하라작은도서관,작은도서관,서울특별시,광진구,"매주 토요일, 일요일",13:00-17:00,00:00-00:00,00:00-00:00,3,7,서울특별시 광진구 광장로 78(광장동),02-453-7068,,37.5476110610,127.1056385177
광장동새마을작은도서관,작은도서관,서울특별시,광진구,"매주 토요일, 일요일, 공휴일",12:00-16:00,00:00-00:00,00:00-00:00,3,7,서울특별시 광진구 광장로 52(광장동),02-458-8379,,37.5468817706,127.1030121682
자양1동새마을작은도서관,작은도서관,서울특별시,광진구,"매주 토요일, 일요일, 공휴일",13:00-17:00,00:00-00:00,00:00-00:00,5,7,서울특별시 광진구 자양로13길 37(자양동),02-446-0135,,37.5344965979,127.0823942981
자양2동새마을작은도서관,작은도서관,서울특별시,광진구,"매주 토요일, 일요일, 공휴일",10:00-18:00,00:00-00:00,00:00-00:00,5,7,서울특별시 광진구 자양로3가길 26(자양동),02-498-9963,,37.5288008634,127.0843882252
자양3동새마을작은도서관,작은도서관,서울특별시,광진구,"매주 토요일, 일요일, 공휴일",09:00-17:00,00:00-00:00,00:00-00:00,4,7,서울특별시 광진구 뚝섬로 568(자양동),02-458-4525,,37.5338324938,127.0729033288
자양4동새마을작은도서관,작은도서관,서울특별시,광진구,"매주 토요일, 일요일, 공휴일",13:00-17:00,00:00-00:00,00:00-00:00,3,7,서울특별시 광진구 아차산로24길 17(자양동),02-462-0395,,37.5402629812,127.0651112650
화양동새마을작은도서관,작은도서관,서울특별시,광진구,"매주 토요일, 일요일, 공휴일",13:00-17:00,00:00-00:00,00:00-00:00,3,7,서울특별시 광진구 능동로17길 39(화양동),02-461-2638,,37.5465375591,127.0713178828
군자동새마을작은도서관,작은도서관,서울특별시,광진구,"매주 토요일, 일요일, 공휴일",13:30-17:30,00:00-00:00,00:00-00:00,3,7,서울특별시 광진구 군자로 151(군자동),02-465-9082,,37.5551590639,127.0758892294
자양전통시장작은도서관,작은도서관,서울특별시,광진구,"매주 월요일, 일요일",09:00-18:00,09:00-18:00,00:00-00:00,2,14,서울특별시 광진구 뚝섬로47길 45-2(자양동),02-6349-0809,,37.5343834620,127.0791900066
날마다자라는나무,작은도서관,서울특별시,광진구,매주 일요일,14:00-20:00,14:00-20:00,00:00-00:00,4,14,서울특별시 광진구 자양번영로4길 8(자양동),02-455-0614,,37.5313871777,127.0757655767
새빛작은도서관,작은도서관,서울특별시,광진구,"매주 토요일, 일요일",10:00-18:00,00:00-00:00,00:00-00:00,5,7,서울특별시 광진구 아차산로46가길 23(자양동),02-3436-6852,,37.5363239233,127.0822560095
예드림작은도서관,작은도서관,서울특별시,광진구,매주 일요일,10:00-17:00,10:00-17:00,00:00-00:00,5,7,서울특별시 광진구 구의로61(구의동),02-6408-0014,,37.5434143912,127.0902072894
홍은도담도서관,공공도서관,서울특별시,서대문구,매주 월요일 및 법정공휴일(일요일제외),09:00-22:00,09:00-17:00,00:00-00:00,7,14,서울특별시 서대문구 홍은중앙로 129,02-360-8640,http://lib.sdm.or.kr,37.601701,126.9489543635
알음알음작은도서관,작은도서관,서울특별시,서대문구,"일요일, 법정공휴일",09:00-18:00,10:00-17:00,00:00-00:00,7,14,"서울특별시 서대문구 경기대로 40, 충현동자치회관",02-330-8164,http://lib.sdm.or.kr,37.562901,126.9623774124
하늘샘작은도서관,작은도서관,서울특별시,서대문구,"토·일요일, 법정공휴일",09:00-18:00,00:00-00:00,00:00-00:00,7,14,"서울특별시 서대문구 독립문로 27, 천연보건분소 1층",02-330-8334,http://lib.sdm.or.kr,37.5696038711,126.9613145543
북아현마을 북카페,작은도서관,서울특별시,서대문구,"토·일요일, 법정공휴일",09:00-18:00,00:00-00:00,00:00-00:00,7,14,"서울특별시 서대문구 북아현로 24, 북아현동주민센터 3층",02-330-8672,http://lib.sdm.or.kr,37.559456,126.9570370835
아이누리작은도서관,작은도서관,서울특별시,서대문구,"일요일, 법정공휴일",09:00-18:00,10:00-17:00,00:00-00:00,7,14,"서울특별시 서대문구 증가로 13-10, 연희동자치회관",02-330-8775,http://lib.sdm.or.kr,37.5693016535,126.9308744982
햇살작은도서관,작은도서관,서울특별시,서대문구,"토·일요일, 법정공휴일",09:00-18:00,00:00-00:00,00:00-00:00,7,14,"서울특별시 서대문구 세검정로1길 45, 홍은1동 자치회관 2층",02-330-8461,http://lib.sdm.or.kr,37.5932353499,126.9439055833
행복작은도서관,작은도서관,서울특별시,서대문구,"토·일요일, 법정공휴일",09:00-18:00,00:00-00:00,00:00-00:00,7,14,"서울특별시 서대문구 모래내로 334, 홍은2동주민센터 3층",02-330-8788,http://lib.sdm.or.kr,37.5801082537,126.9341521459
논골작은도서관,작은도서관,서울특별시,서대문구,"일요일, 법정공휴일",09:00-18:00,10:00-17:00,00:00-00:00,7,14,"서울특별시 서대문구 증가로 13-10, 연희동자치회관",02-391-8789,http://lib.sdm.or.kr,37.5693016535,126.9308744982
새싹작은도서관,작은도서관,서울특별시,서대문구,"일요일, 법정공휴일",09:00-18:00,10:00-17:00,00:00-00:00,7,14,"서울특별시 서대문구 통일로27길 19, 홍제1동 자치회관",02-330-8663,http://lib.sdm.or.kr,37.5831643081,126.9484100520
꿈이있는작은도서관,작은도서관,서울특별시,서대문구,"토·일요일, 법정공휴일",09:00-18:00,00:00-00:00,00:00-00:00,7,14,"서울특별시 서대문구 통일로34길 27, 홍제2동주민센터 2층",02-330-8453,http://lib.sdm.or.kr,37.5861055644,126.9493681257
문화촌어린이도서관,작은도서관,서울특별시,서대문구,"일요일, 법정공휴일",09:00-18:00,10:00-17:00,00:00-00:00,7,14,"서울특별시 서대문구 세검정로4길 32, 홍제3동주민센터 3층",02-330-8991,http://lib.sdm.or.kr,37.593746,126.9496935704
파랑새작은도서관,작은도서관,서울특별시,서대문구,"일요일, 법정공휴일",09:00-18:00,09:00-12:00,00:00-00:00,7,14,"서울특별시 서대문구 모래내로 15길 37, 남가좌1동주민센터 2층",02-330-8992,http://lib.sdm.or.kr,37.5732734312,126.9197817255
늘푸른열린작은도서관,작은도서관,서울특별시,서대문구,"토·일요일, 법정공휴일",09:00-18:00,00:00-00:00,00:00-00:00,7,14,"서울특별시 서대문구 수색로 100-55, 북가좌1동주민센터 2층",02-330-8554,http://lib.sdm.or.kr,37.5743692999,126.9101357434
가슴따뜻한작은도서관,작은도서관,서울특별시,서대문구,"일요일, 법정공휴일",09:00-18:00,10:00-14:00,00:00-00:00,7,14,"서울특별시 서대문구 응암로1길 10, 북가좌2동주민센터 2층",02-330-8652,http://lib.sdm.or.kr,37.581453,126.9111777976
이팝꽃향기작은도서관,작은도서관,서울특별시,서대문구,"일요일, 법정공휴일",09:00-18:00,09:00-17:00,00:00-00:00,7,14,서울특별시 서대문구 불광천길 204,02-302-9798,http://lib.sdm.or.kr,37.5837366469,126.9109486980
파랑새작은도서관,작은도서관,서울특별시,노원구　,"법정공휴일, 일요일",09:00-18:00,10:00-13:00,00:00-00:00,5,14,서울특별시 노원구 상계로 118 (상계2동 공공복합청사 2층),02-2116-2789,www.nowonlib.kr,37.6574839423,127.0678653710
이진아기념도서관,공공도서관,서울특별시,서대문구,매주 월요일 및 법정공휴일(일요일제외),09:00-22:00,09:00-17:00,00:00-00:00,7,14,서울특별시 서대문구 독립문공원길 80,02-360-8600,http://lib.sdm.or.kr,37.5729535429,126.9555486860
남가좌새롬어린이도서관,공공도서관,서울특별시,서대문구,매주 월요일 및 법정공휴일(일요일제외),09:00-18:00,09:00-17:00,00:00-00:00,7,14,서울특별시 서대문구 증가로10길 16-15,02-360-8670,http://lib.sdm.or.kr,37.5783398402,126.9240464952
책누리작은도서관,작은도서관,서울특별시,노원구　,"법정공휴일, 일요일",09:00-18:00,10:00-13:00,00:00-00:00,5,14,서울특별시 노원구 중계로 143(중계동 363-4),02-2116-2629,www.nowonlib.kr,37.6478031949,127.0802847670
책사랑북카페,작은도서관,서울특별시,노원구　,"법정공휴일, 일요일",09:00-18:00,10:00-13:00,00:00-00:00,5,14,서울특별시 노원구 한글비석로 279(중계동 359-5),02-2116-2659,www.nowonlib.kr,37.6525478478,127.0774749928
하늘작은도서관,작은도서관,서울특별시,노원구　,"법정공휴일, 일요일",09:00-18:00,10:00-13:00,00:00-00:00,5,14,서울특별시 노원구 노원로 17길 56(중계동 511-1),02-2116-2689,www.nowonlib.kr,37.6421306904,127.0687306461
중계사랑북카페,작은도서관,서울특별시,노원구　,"법정공휴일, 일요일",09:00-18:00,10:00-13:00,00:00-00:00,5,14,서울특별시 노원구 덕릉로82길 50(중계동 369-2),02-2116-2729,www.nowonlib.kr,37.6587642944,127.0779755709
푸른숲작은도서관,작은도서관,서울특별시,노원구　,"법정공휴일, 일요일",09:00-18:00,10:00-13:00,00:00-00:00,5,14,서울특별시 노원구 동일로 1697(상계동 1259),02-2116-2749,www.nowonlib.kr,37.6799286708,127.0549625238
열린작은도서관,작은도서관,서울특별시,노원구　,"법정공휴일, 일요일",09:00-18:00,10:00-13:00,00:00-00:00,5,14,서울특별시 노원구 공릉로55길 88(하계동 273-2),02-2116-2609,www.nowonlib.kr,37.6320437141,127.0679509873
월계문화정보도서관,공공도서관,서울특별시,노원구　,"법정공휴일(일요일제외),매월 둘째,넷째 월요일",08:00-23:00,09:00-17:00,00:00-00:00,5,14,서울특별시 노원구 월계로 319(월계동),02-991-0871,www.nowonlib.kr,37.6286369987,127.0561210123
상계문화정보도서관,공공도서관,서울특별시,노원구　,"법정공휴일(일요일제외),매월 둘째,넷째 월요일",08:00-23:00,09:00-17:00,00:00-00:00,5,14,서울특별시 노원구 동일로243길 57 (상계동),02-3391-7882,www.nowonlib.kr,37.6785281172,127.0519415788
불암도서관,공공도서관,서울특별시,노원구　,"법정공휴일(일요일제외),매월 첫째,셋째 월요일",09:00-20:00,09:00-17:00,00:00-00:00,5,14,서울특별시 노원구 노원로34길 43(상계동),02-935-0722,www.nowonlib.kr,37.6611002897,127.0650081245
화랑도서관,공공도서관,서울특별시,노원구　,"법정공휴일(일요일제외),매주 월요일",09:00-18:00,09:00-17:00,00:00-00:00,5,14,서울특별시 노원구 노원로1나길 10 (공릉동),02-973-1318,www.nowonlib.kr,37.6215213438,127.0830475523
한내도서관,공공도서관,서울특별시,노원구　,"법정공휴일,일요일",09:00-18:00,09:00-17:00,00:00-00:00,5,14,서울특별시 노원구 마들로 86(월계동 1-1),02-979-7420,www.nowonlib.kr,37.6235883764,127.0687815367
향기나무도서관,공공도서관,서울특별시,노원구　,"법정공휴일,일요일",09:00-18:00,09:00-17:00,00:00-00:00,5,14,서울특별시 노원구 마들로 86(월계동 1-1),02-2116-4448,www.nowonlib.kr,37.6235883764,127.0687815367
공릉도서관,공공도서관,서울특별시,노원구　,"법정공휴일,일요일",09:00-18:00,09:00-17:00,00:00-00:00,5,14,서울특별시 노원구 마들로 86(월계동 1-1),02-976-3820,www.nowonlib.kr,37.6235883764,127.0687815367
월계어린이도서관,공공도서관,서울특별시,노원구　,"법정공휴일,일요일",09:00-18:00,09:00-17:00,00:00-00:00,5,14,서울특별시 노원구 마들로 86(월계동 1-1),070-4238-5148,www.nowonlib.kr,37.6235883764,127.0687815367
꿈꾸는작은도서관,작은도서관,서울특별시,노원구　,"법정공휴일, 일요일",09:00-18:00,10:00-13:00,00:00-00:00,5,14,서울특별시 노원구 석계로 59 (월계동 928),02-2116-2419,www.nowonlib.kr,37.6199913215,127.0628835944
달내작은도서관,작은도서관,서울특별시,노원구　,"법정공휴일, 일요일",09:00-18:00,10:00-13:00,00:00-00:00,5,14,서울특별시 노원구 초안산로5길 28(월계동 777번지),02-2116-2449,www.nowonlib.kr,37.6325100538,127.0507811632
도란도란작은도서관,작은도서관,서울특별시,노원구　,"법정공휴일, 일요일",09:00-18:00,10:00-13:00,00:00-00:00,5,14,서울특별시 노원구 동일로186길 3-24(공릉동 499-25),02-2116-2509,www.nowonlib.kr,37.6247782832,127.0737487566
책이랑친구랑작은도서관,작은도서관,서울특별시,노원구　,"법정공휴일, 일요일",09:00-18:00,10:00-13:00,00:00-00:00,5,14,서울특별시 노원구 노원로1길 68(공릉동 87-7),02-2116-2539,www.nowonlib.kr,37.6212868540,127.0833780488
가재울작은도서관,작은도서관,서울특별시,노원구　,"법정공휴일, 일요일",09:00-18:00,10:00-13:00,00:00-00:00,5,14,서울특별시 노원구 노원로 261(하계동 251-2),070-4226-5064,www.nowonlib.kr,37.6405606854,127.0725588183
노원정보도서관,공공도서관,서울특별시,노원구　,"법정공휴일(일요일제외),매월 첫째,셋째 월요일",08:00-23:00,09:00-17:00,00:00-00:00,5,14,서울특별시 노원구 노원로34길 43(상계동),02-950-0050,www.nowonlib.kr,37.6611002897,127.0650081245
노원어린이도서관,공공도서관,서울특별시,노원구　,"법정공휴일(일요일제외),매주 화요일",09:00-18:00,09:00-17:00,00:00-00:00,5,14,서울특별시 노원구 한글비석로 346(중계동),02-933-7145,www.nowonlib.kr,37.6579508515,127.0763790514
서울특별시교육청송파도서관,공공도서관,서울특별시,송파구,"매월 둘째, 넷째주 화요일",08:00-23:00,08:00-23:00,00:00-00:00,5,14,서울특별시 송파구 동남로 263,02-3434-3333,http://splib.sen.go.kr/,37.49993098,127.1348112
목화마을공립작은도서관,작은도서관,서울특별시,영등포구,"매주토,일요일",10:00-17:00,00:00-00:00,00:00-00:00,2,14,서울특별시 영등포구 선유로 13길 25,02-811-7410,https://www.ydplib.or.kr/small,37.5189805683,126.8862799700
대림3동공립작은도서관,작은도서관,서울특별시,영등포구,"매주토,일요일",10:00-17:00,00:00-00:00,00:00-00:00,2,14,서울특별시 영등포구 대림로197,02-832-4705,https://www.ydplib.or.kr/small,37.498301,126.8980361789
대림2동공립작은도서관,작은도서관,서울특별시,영등포구,"매주토,일요일",10:00-17:00,00:00-00:00,00:00-00:00,2,14,서울특별시 영등포구 대림로23길25,02-832-1215,https://www.ydplib.or.kr/small,37.4927398108,126.8982518231
대림1동공립작은도서관,작은도서관,서울특별시,영등포구,"매주토,일요일",10:00-17:00,00:00-00:00,00:00-00:00,2,14,서울특별시 영등포구 디지털로441,02-834-4560,https://www.ydplib.or.kr/small,37.4953953486,126.9062001914
신길7동공립작은도서관,작은도서관,서울특별시,영등포구,"매주토,일요일",10:00-17:00,00:00-00:00,00:00-00:00,2,14,서울특별시 영등포구 여의대방로43길10,070-8895-1186,https://www.ydplib.or.kr/small,37.506385,126.9215136423
신길6동공립작은도서관,작은도서관,서울특별시,영등포구,"매주토,일요일",10:00-17:00,00:00-00:00,00:00-00:00,2,14,서울특별시 영등포구 대방천로 193,02-835-7476,https://www.ydplib.or.kr/small,37.4992023763,126.9124288611
신길5동공립작은도서관,작은도서관,서울특별시,영등포구,"매주토,일요일",10:00-17:00,00:00-00:00,00:00-00:00,2,14,서울특별시 영등포구 도림로264,02-836-1005,https://www.ydplib.or.kr/small,37.501614,126.9052197880
신길4동공립작은도서관,작은도서관,서울특별시,영등포구,"매주토,일요일",10:00-17:00,00:00-00:00,00:00-00:00,2,14,서울특별시 영등포구 신길로42길1,02-849-0394,https://www.ydplib.or.kr/small,37.508428,126.9112779842
신길3동공립작은도서관,작은도서관,서울특별시,영등포구,"매주토,일요일",10:00-17:00,00:00-00:00,00:00-00:00,2,14,서울특별시 영등포구 신길로41라길13-8,070-8895-1185,https://www.ydplib.or.kr/small,37.507285,126.9077506138
신길1동공립작은도서관,작은도서관,서울특별시,영등포구,"매주토,일요일",10:00-17:00,00:00-00:00,00:00-00:00,2,14,서울특별시 영등포구 영등포로84길24-5,070-8895-1184,https://www.ydplib.or.kr/small,37.511135,126.9214407747
양평2동공립작은도서관,작은도서관,서울특별시,영등포구,"매주토,일요일",10:00-17:00,00:00-00:00,00:00-00:00,2,14,서울특별시영등포구 선유로47길30(4층),02-2679-5252,https://www.ydplib.or.kr/small,37.5364996477,126.8940377245
양평1동공립작은도서관,작은도서관,서울특별시,영등포구,"매주토,일요일",10:00-17:00,00:00-00:00,00:00-00:00,2,14,서울특별시 영등포구 영등포로11길12,02-2670-1198,https://www.ydplib.or.kr/small,37.523615,126.8882276932
문래동공립작은도서관,작은도서관,서울특별시,영등포구,"매주토,일요일",10:00-17:00,00:00-00:00,00:00-00:00,2,14,서울특별시 영등포구 도림로141가길16,02-2068-8919,https://www.ydplib.or.kr/small,37.5155327039,126.8913571890
문래정보문화도서관,공공도서관,서울특별시,영등포구,매주월요일,09:00-22:00,09:00-17:00,09:00-17:00,10,21,서울특별시 영등포구 문래로20길 49,02-2629-8600,https://www.ydplib.or.kr,37.5168549495,126.8908937629
대림정보문화도서관,공공도서관,서울특별시,영등포구,매주월요일,09:00-22:00,09:00-17:00,09:00-17:00,10,21,서울특별시 영등포구 도신로27,02-828-3700,https://www.ydplib.or.kr,37.5043176474,126.8960782395
도림동공립작은도서관,작은도서관,서울특별시,영등포구,"매주토,일요일",10:00-17:00,00:00-00:00,00:00-00:00,2,14,서울특별시 영등포구 도신로33길 4,02-833-3036,https://www.ydplib.or.kr/small,37.509967,126.9080504209
당산2동공립작은도서관,작은도서관,서울특별시,영등포구,"매주토,일요일",10:00-17:00,00:00-00:00,00:00-00:00,2,14,서울특별시 영등포구 당산로 235,02-2632-2276,https://www.ydplib.or.kr/small,37.5347081990,126.9020869157
당산1동공립작은도서관,작은도서관,서울특별시,영등포구,"매주토,일요일",10:00-17:00,00:00-00:00,00:00-00:00,2,14,서울특별시 영등포구 영등포로25길 24,02-2677-7916,https://www.ydplib.or.kr/small,37.523058,126.8984640301
여의동공립작은도서관,작은도서관,서울특별시,영등포구,"매주토,일요일",10:00-17:00,00:00-00:00,00:00-00:00,2,14,서울특별시 영등포구 국제금융로124,02-784-2268,https://www.ydplib.or.kr/small,37.517658,126.9346142466
영등포동공립작은도서관,작은도서관,서울특별시,영등포구,"매주토,일요일",10:00-17:00,00:00-00:00,00:00-00:00,2,14,서울특별시 영등포구 영신로200,02-2636-8222,https://www.ydplib.or.kr/small,37.5251004299,126.9027013120
신길2동(분소)공립작은도서관,작은도서관,서울특별시,영등포구,"매주토,일요일",10:00-17:00,00:00-00:00,00:00-00:00,2,14,서울특별시 영등포구 영등포로64길15,02-843-5935,https://www.ydplib.or.kr/small,37.5136578488,126.9170766384
영등포본동공립작은도서관,작은도서관,서울특별시,영등포구,"매주토,일요일",10:00-17:00,00:00-00:00,00:00-00:00,2,14,서울특별시 영등포구 신길로61길 17,02-847-8883,https://www.ydplib.or.kr/small,37.514649,126.9093386830
영등포구지부공립작은도서관,작은도서관,서울특별시,영등포구,"매주토,일요일",10:00-17:00,00:00-00:00,00:00-00:00,2,14,서울특별시 영등포구 국회대로 596,02-2678-9997,https://www.ydplib.or.kr/small,37.5260100820,126.9001117429
여의디지털도서관,공공도서관,서울특별시,영등포구,매주월요일,09:00-20:00,09:00-17:00,09:00-17:00,10,21,서울특별시 영등포구 여의대로 24,02-2629-2222,https://www.ydplib.or.kr,37.5221796951,126.9199179089
선유정보문화도서관,공공도서관,서울특별시,영등포구,매주월요일,09:00-22:00,09:00-17:00,09:00-17:00,10,21,서울특별시 영등포구 선유로 43가길 10-8,02-2163-0800,https://www.ydplib.or.kr,37.5333307384,126.8929379628
청운문학도서관,공공도서관,서울특별시,종로구,"월요일, 1월1일, 설, 추석",10:00-22:00,10:00-22:00,10:00-19:00,5,15,서울특별시 종로구 자하문로36길 40,070-4680-4032,http://lib.jongno.go.kr/,37.5903786,126.9659189
아름꿈도서관,공공도서관,서울특별시,종로구,"일요일, 1월1일, 설, 추석",10:00-19:00,10:00-19:00,00:00-00:00,5,15,서울특별시 종로구 종로58가길 19,02-2237-6644,http://lib.jongno.go.kr/,37.5726975,127.0171157
어린이청소년국학도서관,공공도서관,서울특별시,종로구,"일요일, 1월1일, 설, 추석, 법정공휴일",10:00-22:00,10:00-18:00,00:00-00:00,5,15,서울특별시 종로구 명륜길 26(명륜동 와룡문화센터 5층),02-747-8336,http://lib.jongno.go.kr/,37.5886859,126.9955389
작은도서관 삼봉서랑,작은도서관,서울특별시,종로구,"토요일, 일요일, 법정공휴일",09:00-19:00,00:00-00:00,00:00-00:00,5,15,서울특별시 종로구 삼봉로 43,02-2148-3932,http://lib.jongno.go.kr/,37.5731978,126.9788134
삼청공원 숲속도서관,작은도서관,서울특별시,종로구,"월요일, 1월1일, 설, 추석",10:00-18:00,10:00-18:00,10:00-18:00,5,15,서울특별시 종로구 북촌로 134-3,02-734-3900,http://lib.jongno.go.kr/,37.5879786,126.9840854
우리소리도서관,작은도서관,서울특별시,종로구,"일요일, 1월1일, 설, 추석, 법정공휴일",09:00-18:00,09:00-18:00,00:00-00:00,5,15,"서울특별시 종로구 삼일대로30길 47(종로14가동 주민센터 4,5층)",070-4550-5015,http://lib.jongno.go.kr/,37.5744931,126.9902329
통인 어린이 작은도서관,작은도서관,서울특별시,종로구,"둘째,넷째 월요일, 법정공휴일",10:00-19:00,10:00-17:00,10:00-17:00,5,15,서울특별시 종로구 자하문로13길 20,02-739-8444,http://lib.jongno.go.kr/,37.5804256,126.9705288
도담도담 한옥도서관,작은도서관,서울특별시,종로구,"화요일, 법정공휴일",10:00-19:00,10:00-18:00,10:00-18:00,5,15,서울특별시 종로구 숭인동길 43,02-928-1133,http://lib.jongno.go.kr/,37.5769278,127.0218396
청운효자동 북카페,작은도서관,서울특별시,종로구,"토요일, 일요일, 법정공휴일",10:00-18:00,00:00-00:00,00:00-00:00,5,15,서울특별시 종로구 자하문로 92(청운효자동 주민센터 2층),02-2148-5020,http://lib.jongno.go.kr/,37.5840909,126.9706225
꿈꾸는 평창동 작은도서관,작은도서관,서울특별시,종로구,"토요일, 일요일, 법정공휴일",10:00-18:00,00:00-00:00,00:00-00:00,5,15,서울특별시 종로구 평창문화로 65(평창동 주민센터 2층),02-2148-5140,http://lib.jongno.go.kr/,37.6063736,126.9683668
무악다솜방,작은도서관,서울특별시,종로구,"토요일, 일요일, 법정공휴일",10:00-18:00,00:00-00:00,00:00-00:00,5,15,서울특별시 종로구 통일로14길 36(무악동 주민센터 2층),02-2148-5164,http://lib.jongno.go.kr/,37.5759998,126.9581596
홍파랑 북카페,작은도서관,서울특별시,종로구,"토요일, 일요일, 법정공휴일",10:00-17:00,00:00-00:00,00:00-00:00,5,15,서울특별시 종로구 송월길 154(교남동 주민센터 2층),02-2148-5197,http://lib.jongno.go.kr/,37.5719142,126.9619608
지혜만들기 작은도서관,작은도서관,서울특별시,종로구,"토요일, 일요일, 법정공휴일",10:00-17:00,00:00-00:00,00:00-00:00,5,15,서울특별시 종로구 종로35가길 19(종로56가동 주민센터 3층),02-2148-5285,http://lib.jongno.go.kr/,37.5720608,127.0050305
이화마을 작은도서관,작은도서관,서울특별시,종로구,"일요일, 법정공휴일",10:00-17:00,13:00-17:00,00:00-00:00,5,15,서울특별시 종로구 이화장길 33(이화동 주민센터 2층),02-2148-5309,http://lib.jongno.go.kr/,37.5769802,127.0043471
혜화마을 북카페,작은도서관,서울특별시,종로구,"일요일, 법정공휴일",10:00-17:00,11:00-15:00,00:00-00:00,5,15,서울특별시 종로구 혜화로 12(혜화동 자치회관 4층),02-2148-5339,http://lib.jongno.go.kr/,37.5868552,127.0005661
창이 작은도서관,작은도서관,서울특별시,종로구,"토요일, 일요일, 법정공휴일",10:00-19:00,00:00-00:00,00:00-00:00,5,15,서울특별시 종로구 창신길 62(창신2동 주민센터 2층),02-2148-5439,http://lib.jongno.go.kr/,37.5744498,127.0108719
숭인마루 작은도서관,작은도서관,서울특별시,종로구,"토요일, 일요일, 법정공휴일",09:00-18:00,00:00-00:00,00:00-00:00,5,15,서울특별시 종로구 지봉로 86(숭인1동 주민센터 2층),02-2148-5496,http://lib.jongno.go.kr/,37.5778226,127.0156271
개봉어린이도서관,공공도서관,서울특별시,구로구,월요일,10:00-19:00,10:00-17:00,00:00-00:00,5,14,서울특별시 구로구 경인로 318-15,02-2066-1695,http://lib.guro.go.kr,37.496705,126.855912
하늘도서관,공공도서관,서울특별시,구로구,화요일,09:00-22:00,09:00-17:00,00:00-00:00,5,14,서울특별시 구로구 구로동로13길 68,02-864-9585,http://lib.guro.go.kr,37.48737567,126.8813483
개봉도서관,공공도서관,서울특별시,구로구,화요일,09:00-22:00,09:00-22:00,00:00-00:00,5,14,서울특별시 구로구 개봉로16길 30-11,02-2689-1695,http://lib.guro.go.kr,37.48952311,126.8579748
글마루한옥어린이도서관,공공도서관,서울특별시,구로구,화요일,10:00-19:00,10:00-17:00,00:00-00:00,5,14,서울특별시 구로구 고척로27바길 7,02-2615-8200,http://lib.guro.go.kr,37.50691506,126.845627
궁동어린이도서관,공공도서관,서울특별시,구로구,화요일,10:00-19:00,10:00-17:00,00:00-00:00,5,14,서울특별시 구로구 오리로 1352,02-2060-8229,http://lib.guro.go.kr,37.502239,126.8292614
신도림어린이영어작은도서관,공공도서관,서울특별시,구로구,월요일,09:00-18:00,10:00-17:00,00:00-00:00,5,14,서울특별시 구로구 신도림로 40,02-2069-0185,http://lib.guro.go.kr,37.50778089,126.880593
구로기적의도서관,공공도서관,서울특별시,구로구,월요일,10:00-20:00,10:00-17:00,00:00-00:00,5,14,서울특별시 구로구 구로중앙로40길 24,02-2632-8878,http://lib.guro.go.kr,37.50673603,126.877312
오류도서관,공공도서관,서울특별시,구로구,주말,09:00-21:00,00:00-00:00,00:00-00:00,0,0,서울특별시 구로구 경인로19길 29-4,070-4906-0554,http://lib.guro.go.kr,37.49722308,126.8423228
꿈나무도서관,공공도서관,서울특별시,구로구,화요일,10:00-19:00,10:00-17:00,00:00-00:00,5,14,"서울특별시 구로구 구로동로26길 54, 2층 (구로구시설관리공단)",02-860-2383,http://lib.guro.go.kr,37.48987838,126.8865593
꿈마을도서관,공공도서관,서울특별시,구로구,월요일,09:00-22:00,09:00-17:00,00:00-00:00,5,14,서울특별시 구로구 디지털로27다길 65 (2층),02-830-5807,http://lib.guro.go.kr,37.487167,126.890156
구로구립온누리도서관,공공도서관,서울특별시,구로구,화요일,09:00-22:00,09:00-22:00,00:00-00:00,5,14,"서울특별시 구로구 구로중앙로27나길 9, 4층 (온누리관)",02-858-9080,http://lib.guro.go.kr,37.49746124,126.8865524
나누리 작은도서관,작은도서관,서울특별시,금천구,"토,일요일/법정공휴일",11:00-19:00,00:00-00:00,00:00-00:00,10,14,서울특별시 금천구 금하로23길 40,02-896-7991,,37.45310408,126.908929
마루한 작은도서관,작은도서관,서울특별시,금천구,"토,일요일/법정공휴일",13:00-19:00,00:00-00:00,00:00-00:00,10,14,"서울특별시 금천구 금하로 679, 202호",,,37.4525952686,126.9058063383
금천구립독산도서관,공공도서관,서울특별시,금천구,"매월 첫째,셋째 월요일/법정 공휴일",07:00-22:00,07:00-22:00,00:00-00:00,10,14,서울특별시 금천구 독산로 54길 114,02-863-9544,http://geumcheonlib.seoul.kr,37.467565,126.9081069
해오름작은도서관,작은도서관,서울특별시,금천구,일요일/법정공휴일,10:00-20:00,09:00-17:00,00:00-00:00,10,14,서울특별시 금천구 시흥대로123길 11,02-2104-5569,,37.47022076,126.8970434
참새작은도서관,작은도서관,서울특별시,금천구,일요일/법정공휴일,09:00-20:00,09:00-17:00,00:00-00:00,10,14,서울특별시 금천구 한내로 69-15,02-2104-5765,http://geumcheonlib.seoul.kr,37.45738796,126.8865496
미래향기작은도서관,작은도서관,서울특별시,금천구,일요일/법정공휴일,10:00-20:00,09:00-17:00,00:00-00:00,10,14,서울특별시 금천구 범안로 1240-7,02-2104-5584,,37.46611089,126.899737
청개구리작은도서관,작은도서관,서울특별시,금천구,"월,일요일/법정공휴일",10:00-20:00,09:00-17:00,00:00-00:00,10,14,서울특별시 금천구 독산로 317,02-2104-5606,http://cafe.daum.net/greenfroglib,37.475136,126.9031731
꿈씨어린이작은도서관,작은도서관,서울특별시,금천구,일요일/법정공휴일,10:00-20:00,09:00-17:00,00:00-00:00,10,14,서울특별시 금천구 독산로232,02-2104-5625,,37.46755452,126.902133
맑은누리작은도서관,작은도서관,서울특별시,금천구,"토,일요일/법정공휴일",10:00-18:00,00:00-00:00,00:00-00:00,10,14,서울특별시 금천구 시흥대로58길 36,02-2104-5649,,37.453534,126.9032507
꿈꾸는작은도서관,작은도서관,서울특별시,금천구,"토,일요일/법정공휴일",10:00-18:00,00:00-00:00,00:00-00:00,10,14,서울특별시 금천구 시흥대로18길 40,02-2104-5688,,37.440257,126.9058035
도란도란작은도서관,작은도서관,서울특별시,금천구,"토,일요일/법정공휴일",10:00-20:00,09:00-17:00,00:00-00:00,10,14,서울특별시 금천구 독산로36길 14,02-2104-5706,,37.458965,126.906172
책읽는주민사랑방작은도서관,작은도서관,서울특별시,금천구,일요일/법정공휴일,10:00-18:00,09:00-17:00,00:00-00:00,10,14,서울특별시 금천구 금하로21길 20,02-2104-5729,,37.452373,126.9083063
책이든거리작은도서관,작은도서관,서울특별시,금천구,"토,일요일/법정공휴일",11:00-20:00,00:00-00:00,00:00-00:00,10,14,서울특별시 금천구 가산디지털1로 2(가산동 677번지),02-853-3327,,37.46683555,126.8879996614
책달샘숲속작은도서관,작은도서관,서울특별시,금천구,"월,일요일/법정공휴일",10:00-18:00,10:00-18:00,00:00-00:00,10,14,서울특별시 금천구 독산동 373(감로천생태공원 내),02-2104-5733,,,126.907878
우리울 작은도서관,작은도서관,서울특별시,금천구,일요일/법정공휴일,14:00-19:00,14:00-19:00,00:00-00:00,10,14,"서울특별시 금천구 범안로12가길 49, 2층",070-7573-3321,,37.46493455,126.894003
롯데캐슬1차 작은도서관,작은도서관,서울특별시,금천구,일요일/법정공휴일,10:00-17:00,10:00-14:00,00:00-00:00,10,14,서울특별시 금천구 벚꽃로40,070-4405-8780,,37.46005722,126.8928436
지혜의숲 작은도서관,작은도서관,서울특별시,금천구,토요일/법정공휴일,10:00-18:00,00:00-00:00,00:00-00:00,10,14,서울특별시 금천구 시흥대로90길 25,070-4192-5822,,37.46181446,126.8992884
책읽는마을 작은도서관,작은도서관,서울특별시,금천구,"토,일요일/법정공휴일",12:00-19:00,00:00-00:00,00:00-00:00,10,14,서울특별시 금천구 독산로74길 31,02-858-9919,,37.46865174,126.904183
트리니티 작은도서관,작은도서관,서울특별시,금천구,법정공휴일,09:00-21:00,09:00-21:00,00:00-00:00,10,14,서울특별시 금천구 시흥대로 72길 13,02-802-5390,,37.45717329,126.900233
산돌어린이도서관,작은도서관,서울특별시,금천구,월요일/법정공휴일,13:00-18:00,13:00-18:00,00:00-00:00,10,14,서울특별시 금천구 시흥대로75길 12 (산돌문화센타 2층),02-808-7902,,37.45760055,126.898373
소망의나무어린이 작은도서관,작은도서관,서울특별시,금천구,법정공휴일,12:00-17:00,11:00-15:00,00:00-00:00,10,14,서울특별시 금천구 금하로11길 14,02-804-9596,,37.45455245,126.9037964
은행나무어린이도서관,작은도서관,서울특별시,금천구,월요일/법정공휴일,10:00-18:00,13:00-18:00,00:00-00:00,10,14,서울특별시 금천구 탑골로 43-8,02-892-7894,,37.45228958,126.913703
길빛 작은도서관,작은도서관,서울특별시,금천구,일요일/법정공휴일,10:00-18:00,13:00-15:00,00:00-00:00,10,14,서울특별시 금천구 독산로 16,02-6448-4162,,37.44883366,126.9048299
샘솟는 작은도서관,작은도서관,서울특별시,금천구,"토,일요일/법정공휴일",13:00-19:00,00:00-00:00,00:00-00:00,10,14,서울특별시 금천구 독산로64길 15,02-854-0500,,37.46523095,126.9034346
와서 작은도서관,작은도서관,서울특별시,금천구,"토,일요일/법정공휴일",14:00-17:00,00:00-00:00,00:00-00:00,10,14,서울특별시 금천구 벚꽃로56길 62 B01,02-859-2414,,37.483792,126.883653
금천구립시흥도서관,공공도서관,서울특별시,금천구,"매월 첫째,셋째 금요일/법정 공휴일",07:00-22:00,07:00-22:00,00:00-00:00,10,14,서울특별시 금천구 금하로 764,02-809-8242,http://geumcheonlib.seoul.kr,37.449695,126.9146113
금천구립금나래도서관,공공도서관,서울특별시,금천구,"매월 마지막주 일요일/신정(1.1), 설연휴, 추석연휴, 석가탄신일, 성탄절, 선거일",09:00-22:00,09:00-22:00,09:00-17:00,10,14,서울특별시 금천구 시흥대로73길 70,02-2627-2991,http://geumcheonlib.seoul.kr,37.45706511,126.8960352
금천구립가산도서관,공공도서관,서울특별시,금천구,"매월 둘째,넷째 월요일/법정 공휴일",07:00-22:00,07:00-22:00,00:00-00:00,10,14,서울특별시 금천구 가산로5길 43,02-865-6817,http://geumcheonlib.seoul.kr,37.47349244,126.892128
구의2동새마을작은도서관,작은도서관,서울특별시,광진구,"매주 토요일, 일요일, 공휴일",13:30-17:30,00:00-00:00,00:00-00:00,3,7,서울특별시 광진구 천호대로136길 55(구의동),02-458-1380,,37.5472420520,127.0899222098
구의제3동도서관,공공도서관,서울특별시,광진구,"매월 둘째, 넷째 월요일, 공휴일",09:00-19:00,09:00-17:00,00:00-00:00,5,21,서울특별시 광진구 강변역로 17(구의동),02-454-6294,http://www.gwangjinlib.seoul.kr/,37.5379926070,127.0919839534
자양한강도서관,공공도서관,서울특별시,광진구,"매월 둘째, 넷째 월요일, 공휴일",09:00-19:00,09:00-17:00,00:00-00:00,5,21,서울특별시 광진구 뚝섬로52길 66(자양동),02-456-0048,https://www.gwangjinlib.seoul.kr/jyriver/index.do,,
중곡1동새마을작은도서관,작은도서관,서울특별시,광진구,"매주 토요일, 일요일, 공휴일",13:00-17:00,00:00-00:00,00:00-00:00,5,7,서울특별시 광진구 긴고랑로12길 49(중곡동),02-461-9058,,37.5606668136,127.0800508301
중곡2동새마을작은도서관,작은도서관,서울특별시,광진구,"매주 토요일, 일요일, 공휴일",09:00-17:00,00:00-00:00,00:00-00:00,5,7,서울특별시 광진구 능동로 346(중곡동),02-458-7036,,37.5601504684,127.0814763512
중곡3동새마을작은도서관,작은도서관,서울특별시,광진구,"매주 토요일, 일요일, 공휴일",09:30-17:30,00:00-00:00,00:00-00:00,3,7,서울특별시 광진구 동일로76가길 28(중곡동),02-462-4916,,37.5688081553,127.0801365138
중곡4동새마을작은도서관,작은도서관,서울특별시,광진구,"매주 토요일, 일요일, 공휴일",09:00-17:00,00:00-00:00,00:00-00:00,3,7,서울특별시 광진구 긴고랑로 131(중곡동),02-450-1513,,37.5590995526,127.0894339436
능동새마을작은도서관,작은도서관,서울특별시,광진구,"매주 토요일, 일요일, 공휴일",13:00-17:00,00:00-00:00,00:00-00:00,3,7,서울특별시 광진구 천호대로112길 55(능동),02-453-6525,,37.5537612317,127.0805504482
구의1동새마을작은도서관,작은도서관,서울특별시,광진구,"매주 토요일, 일요일, 공휴일",10:00-17:00,00:00-00:00,00:00-00:00,3,7,서울특별시 광진구 광나루로36길 56(구의동),02-454-2830,,37.5424915454,127.0856664495
열린도서관,공공도서관,서울특별시,강남구,"첫째(셋째)월요일,일요일을 제외한 법정공휴일",09:00-22:00,09:00-17:00,00:00-00:00,5,14,서울특별시 강남구 일원로115(삼성생명빌딩B동 203호),02-3412-3970,http://library.gangnam.go.kr/,37.484020869,127.08445994
삼성도서관,작은도서관,서울특별시,강남구,"둘째(넷째)화요일,일요일을 제외한 법정공휴일",06:00-22:00,09:00-17:00,00:00-00:00,5,14,서울특별시 강남구 봉은사로 616 (삼성1동 주민센터 동관4층),02-568-9984,http://library.gangnam.go.kr/,37.514355126,127.06260935
못골도서관,공공도서관,서울특별시,강남구,"둘째(넷째)화요일,일요일을 제외한 법정공휴일",08:00-22:00,08:00-22:00,00:00-00:00,5,14,서울특별시 강남구 자곡로 116,02-459-5522,http://library.gangnam.go.kr/,37.47153801,127.09658259
못골한옥어린이도서관,어린이도서관,서울특별시,강남구,"첫째(셋째)월요일,일요일을 제외한 법정공휴일",09:00-18:00,09:00-17:00,00:00-00:00,5,14,서울특별시 강남구 자곡로 7길 3 (자곡동 607),02-2226-5930,http://library.gangnam.go.kr/,37.473304981,127.09972763
고맙습니다 작은도서관,작은도서관,서울특별시,양천구,"일요일, 법정공휴일",10:00-18:00,10:00-14:00,00:00-00:00,5,14,서울특별시 양천구 중앙로 209,02-2699-6855,http://lib.yangcheon.go.kr,37.5151474248,126.854773
넓은들작은도서관,작은도서관,서울특별시,양천구,"토,일요일, 법정공휴일",09:00-18:00,00:00-00:00,00:00-00:00,5,14,서울특별시 양천구 남부순환로 88길 5-7,02-2618-1307,http://lib.yangcheon.go.kr,37.5114326403,126.841571
목1동도서방 (목1동주민센터 2층),작은도서관,서울특별시,양천구,"토,일요일, 법정공휴일",09:00-18:00,00:00-00:00,00:00-00:00,5,14,서울특별시 양천구 목동서로 192,02-2620-3947,http://lib.yangcheon.go.kr,37.530392,126.871120
신월6동도서방 (신월6동주민센터 2층),작은도서관,서울특별시,양천구,"토,일요일, 법정공휴일",09:00-18:00,00:00-00:00,00:00-00:00,5,14,서울특별시 양천구 남부순환로 609,02-2620-4161,http://lib.yangcheon.go.kr,37.5145457628,126.8409606665
신월7동도서방 (신월7동주민센터 2층),작은도서관,서울특별시,양천구,"토,일요일, 법정공휴일",09:00-18:00,00:00-00:00,00:00-00:00,5,14,서울특별시 양천구 남부순환로 70길 16-3,02-2698-8338,http://lib.yangcheon.go.kr,37.5218821521,126.8347097820
신정6동도서방 (신정6동주민센터 2층),작은도서관,서울특별시,양천구,"토,일요일, 법정공휴일",09:00-18:00,00:00-00:00,00:00-00:00,5,14,서울특별시 양천구 목동서로 353,02-2620-4303,http://lib.yangcheon.go.kr,37.517081,126.8643882921
신정7동도서방 (신정7동주민센터 2층),작은도서관,서울특별시,양천구,"토,일요일, 법정공휴일",09:00-18:00,00:00-00:00,00:00-00:00,5,14,서울특별시 양천구 목동동로 37,02-2620-4327,http://lib.yangcheon.go.kr,37.514474,126.8596695756
세곡도서관,작은도서관,서울특별시,강남구,"첫째(셋째)월요일,일요일을 제외한 법정공휴일",09:00-21:30,09:00-17:00,00:00-00:00,5,14,서울특별시 강남구 밤고개로 286 (세곡문화센터 2층),02-445-0297,http://library.gangnam.go.kr/,37.469049536,127.10691151
대치1작은도서관,작은도서관,서울특별시,강남구,"첫째(셋째)월요일,일요일을 제외한 법정공휴일",06:00-22:00,09:00-17:00,00:00-00:00,5,14,서울특별시 강남구 남부순환로391길 19 (대치1문화센터 지하1층),02-3452-1170,http://library.gangnam.go.kr/,37.493245715,127.05677492
역삼2동작은도서관,작은도서관,서울특별시,강남구,"일요일, 법정공휴일",09:00-18:00,09:00-17:00,00:00-00:00,5,14,서울특별시 강남구 언주로 314(강남프라자 2층)역삼동 761-18,02-567-0930,http://library.gangnam.go.kr/,37.495891968,127.04647729
신사동작은도서관,작은도서관,서울특별시,강남구,"토,일요일, 법정공휴일",09:00-17:00,00:00-00:00,00:00-00:00,5,14,"서울특별시 강남구 압구정로 128(신사동 주민센터5층), 신사동 548-1",02-3423-7303,http://library.gangnam.go.kr/,37.523974213,127.02279711
압구정동작은도서관,작은도서관,서울특별시,강남구,"토,일요일, 법정공휴일",09:00-18:00,00:00-00:00,00:00-00:00,5,14,서울특별시 강남구 압구정로 151(압구정동 주민센터 3층)압구정동 426,02-3423-7603,http://library.gangnam.go.kr/,37.526785009,127.02445419
도곡2동 작은도서관,작은도서관,서울특별시,강남구,"토,일요일, 법정공휴일",09:00-17:00,00:00-00:00,00:00-00:00,5,14,서울특별시 강남구 남부순환로 378길 34-9(도곡2문화센터 1층)도곡동 518-8,02-3423-7556,http://library.gangnam.go.kr/,37.4837230766,127.04641546
개포4동작은도서관,작은도서관,서울특별시,강남구,"토,일요일, 법정공휴일",09:00-17:30,00:00-00:00,00:00-00:00,5,14,서울특별시 강남구 개포로 38길 12(개포4동 주민센터 2층)개포동121-4,02-3423-7853,http://library.gangnam.go.kr/,37.478821121,127.05165832
일원본동 작은도서관,작은도서관,서울특별시,강남구,"토,일요일, 법정공휴일",10:00-16:00,00:00-00:00,00:00-00:00,5,14,서울특별시 강남구 광평로 126(일원본동 주민센터2층) 일원동 735-3,02-3423-8263,http://library.gangnam.go.kr/,37.483377889,127.08648081
수서동 작은도서관,작은도서관,서울특별시,강남구,"토,일요일, 법정공휴일",09:00-18:00,00:00-00:00,00:00-00:00,5,14,서울특별시 강남구 광평로 301-4(수서동 주민센터 2층)수서동 718-2,02-3723-8553,http://library.gangnam.go.kr/,37.488902287,127.10499042
일원1동 작은도서관,작은도서관,서울특별시,강남구,"토,일요일, 법정공휴일",09:00-18:00,00:00-00:00,00:00-00:00,5,14,서울특별시 강남구 양재대로55길 14(일원1동 주민센터 1층),02-3423-8366,http://library.gangnam.go.kr/,37.491853427,127.08802844
도곡정보문화도서관,공공도서관,서울특별시,강남구,"첫째(셋째)월요일,일요일을 제외한 법정공휴일",06:00-22:00,09:00-17:00,00:00-00:00,5,14,서울특별시 강남구 도곡로18길 57(도곡동 892-6),02-2176-0780,http://library.gangnam.go.kr/,37.488311835,127.03887868
논현도서관,공공도서관,서울특별시,강남구,"둘째(넷째)화요일,일요일을 제외한 법정공휴일",06:00-22:00,09:00-17:00,00:00-00:00,5,14,서울특별시 강남구 학동로43길 17 (논현2문화센터 6층),02-3443-7650,http://library.gangnam.go.kr/,37.517277909,127.0372042048
정다운도서관,공공도서관,서울특별시,강남구,"둘째(넷째)화요일,일요일을 제외한 법정공휴일",06:00-22:00,09:00-17:00,00:00-00:00,5,14,서울특별시 강남구 학동로67길 11 (청담평생학습관 3층),02-512-9326,http://library.gangnam.go.kr/,37.519098264,127.0464419
청담도서관,공공도서관,서울특별시,강남구,"첫째(셋째)월요일,일요일을 제외한 법정공휴일",09:00-22:00,09:00-17:00,00:00-00:00,5,14,서울특별시 강남구 압구정로79길 26 (청담문화센터 7층),02-540-7042,http://library.gangnam.go.kr/,37.525090578,127.04929191
대치도서관,공공도서관,서울특별시,강남구,"둘째(넷째)화요일,일요일을 제외한 법정공휴일",06:00-21:00,09:00-17:00,00:00-00:00,5,14,서울특별시 강남구 삼성로 212 (은마상가 C블럭 2층),02-565-6666,http://library.gangnam.go.kr/,37.49961649,127.06591734
즐거운도서관,공공도서관,서울특별시,강남구,"첫째(셋째)월요일,일요일을 제외한 법정공휴일",06:00-22:00,09:00-17:00,00:00-00:00,5,14,서울특별시 강남구 도곡로77길 23 (대치4문화센터 4층),02-565-7533,http://library.gangnam.go.kr/,37.499728838,127.05784739
행복한도서관,공공도서관,서울특별시,강남구,"둘째(넷째)화요일,일요일을 제외한 법정공휴일",06:00-22:00,09:00-17:00,00:00-00:00,5,14,서울특별시 강남구 영동대로65길 24 (대치2문화센터 3층),02-567-3833,http://library.gangnam.go.kr/,37.502306044,127.06418712
역삼푸른솔도서관,공공도서관,서울특별시,강남구,"둘째(넷째)화요일,일요일을 제외한 법정공휴일",06:00-22:00,09:00-17:00,00:00-00:00,5,14,서울특별시 강남구 테헤란로8길 36 (강남문화원 4층),02-2051-1178,http://library.gangnam.go.kr/,37.49649864,127.03203001
역삼도서관,공공도서관,서울특별시,강남구,"첫째(셋째)월요일,일요일을 제외한 법정공휴일",06:00-22:00,09:00-17:00,00:00-00:00,5,14,서울특별시 강남구 역삼로7길 16 (역삼1문화센터 5층),02-508-1139,http://library.gangnam.go.kr/,37.495373838,127.03328248
논현정보도서관,작은도서관,서울특별시,강남구,"일요일, 법정공휴일",09:00-18:00,09:00-17:00,00:00-00:00,5,14,서울특별시 강남구 학동로 169 (논현1파출소 3층),02-511-7466,http://library.gangnam.go.kr/,37.513863518,127.02932278
자양제4동도서관,공공도서관,서울특별시,광진구,"매월 첫째, 셋째 화요일, 공휴일",09:00-19:00,09:00-17:00,00:00-00:00,5,21,서울특별시 광진구 뚝섬로26길 58(자양동),02-465-0737,http://www.gwangjinlib.seoul.kr/,37.5340958963,127.0662599419
곰달래도서관,공공도서관,서울특별시,강서구,"월, 법정공휴일",09:00-22:00,09:00-22:00,00:00-00:00,5,14,서울특별시 강서구 강서로5길 50,2065-3785,http://lib.gangseo.seoul.kr,37.52905871,126.848899
등빛도서관,공공도서관,서울특별시,강서구,"매월 마지막주 월요일, 법정공휴일",09:00-22:00,09:00-22:00,00:00-00:00,5,14,서울특별시 강서구 강서로62길 48,3664-6990,http://lib.gangseo.seoul.kr,37.5624556,126.8423755
가양도서관,공공도서관,서울특별시,강서구,"월, 법정공휴일",09:00-22:00,09:00-22:00,00:00-00:00,5,14,서울특별시 강서구 양천로 61길 101,3665-8797,http://lib.gangseo.seoul.kr,37.55996148,126.8655601
도란도란쉼터작은도서관,작은도서관,서울특별시,강서구,"일, 법정공휴일",09:00-18:00,10:00-14:00,00:00-00:00,3,14,서울특별시 강서구 허준로 30 가양1동주민센터 2층,2600-7778,,37.56948645,126.8447061
허준마을작은도서관,작은도서관,서울특별시,강서구,"일, 법정공휴일",09:00-17:00,09:30-13:30,00:00-00:00,3,14,서울특별시 강서구 허준로 93 가양2동주민센터 2층,2600-7813,,37.56739738,126.851271
도리샘작은도서관,작은도서관,서울특별시,강서구,"토,일, 법정공휴일",09:00-17:30,00:00-00:00,00:00-00:00,3,14,서울특별시 강서구 허준로 202 가양3동주민센터 2층,2600-7856,,37.56108734,126.8605599
책향기작은도서관,작은도서관,서울특별시,강서구,"일, 법정공휴일",09:30-17:30,09:00-13:00,00:00-00:00,3,14,서울특별시 강서구 강서로 47길 54 발산1동주민센터 2층,2600-7979,http://lib.gangseo.seoul.kr,37.55311585,126.8331787
송정작은도서관,작은도서관,서울특별시,강서구,"일, 법정공휴일",09:00-18:00,09:30-13:30,00:00-00:00,3,14,서울특별시 강서구 송정로 45 공항동주민센터 2층,2600-7932,http://lib.gangseo.seoul.kr,37.55878245,126.8100731
글벗누리작은도서관,작은도서관,서울특별시,강서구,"토,일, 법정공휴일",09:00-18:00,00:00-00:00,00:00-00:00,3,14,서울특별시 강서구 방화대로 330 방화1동주민센터 2층,2600-7962,http://lib.gangseo.seoul.kr,37.57034422,126.8170529
채움작은도서관,작은도서관,서울특별시,강서구,"토,일, 법정공휴일",09:00-18:00,00:00-00:00,00:00-00:00,3,14,서울특별시 강서구 개화동로23길 20 방화2동주민센터 2층,2600-5225,http://lib.gangseo.seoul.kr,37.56672021,126.8067388
방그리나작은도서관,작은도서관,서울특별시,강서구,"일, 법정공휴일",10:00-18:00,09:00-13:00,00:00-00:00,3,14,서울특별시 강서구 금낭화로24길 5 방화3동주민센터 2층,2600-5267,http://lib.gangseo.seoul.kr,37.57871815,126.8136588
수명산작은도서관,작은도서관,서울특별시,강서구,"일, 법정공휴일",09:00-18:00,09:00-18:00,00:00-00:00,3,14,서울특별시 강서구 수명로1길 131 내발산동공공기숙사 지하1층,2666-0037,http://lib.gangseo.seoul.kr,37.5541175,126.8255215
옹기종기작은도서관,작은도서관,서울특별시,강서구,"토,일, 법정공휴일",10:00-18:00,00:00-00:00,00:00-00:00,3,14,서울특별시 강서구 공항대로 61길 50 염창동지역정보센터 1층,2600-7324,http://lib.gangseo.seoul.kr,37.55302513,126.8667223
해뜰작은도서관,작은도서관,서울특별시,강서구,"일, 법정공휴일",09:00-18:00,09:00-16:00,00:00-00:00,3,14,서울특별시 강서구 방화대로48길 40 방화2복지관 3층,2662-6669,http://lib.gangseo.seoul.kr,37.57424491,126.8201677
꿈자람책놀이터작은도서관,작은도서관,서울특별시,강서구,"일, 법정공휴일",09:00-20:00,09:00-17:00,00:00-00:00,3,14,서울특별시 강서구 개화동로21길 4 방화11복지관 1층,070-5153-8240,http://lib.gangseo.seoul.kr,37.57071896,126.8057278
초록동작은도서관,작은도서관,서울특별시,강서구,"토,일, 법정공휴일",09:30-17:30,00:00-00:00,00:00-00:00,3,14,서울특별시 강서구 초록마을로14길 36 초록동실버문화센터 2층,2065-7670,http://lib.gangseo.seoul.kr,37.54114963,126.848508
가람작은도서관,작은도서관,서울특별시,강서구,"일, 법정공휴일",09:00-17:00,09:00-13:00,00:00-00:00,3,14,서울특별시 강서구 양천로57길 36 가양5종합사회복지관 1층,2668-4603,http://lib.gangseo.seoul.kr,37.56462873,126.8535176
솔뫼작은도서관,작은도서관,서울특별시,강서구,"일, 법정공휴일",10:00-17:30,10:00-13:00,00:00-00:00,3,14,서울특별시 강서구 가로공원로77길 30 공원경로당 2층,2690-2468,,37.53802615,126.8385211
꿈꾸는어린이도서관,공공도서관,서울특별시,강서구,"월, 법정공휴일",09:00-22:00,09:00-22:00,00:00-00:00,5,14,서울특별시 강서구 공항대로 615,3663-4025,http://lib.gangseo.seoul.kr,37.54733808,126.8733184
우장산숲속도서관,공공도서관,서울특별시,강서구,"월, 법정공휴일",09:00-22:00,09:00-22:00,00:00-00:00,5,14,서울특별시 강서구 우현로 34,2696-6689,http://lib.gangseo.seoul.kr,37.5482876,126.841835
길꽃어린이도서관,공공도서관,서울특별시,강서구,"월, 법정공휴일",09:00-22:00,09:00-22:00,00:00-00:00,5,14,서울특별시 강서구 금낭화로24길 5,2663-4764,http://lib.gangseo.seoul.kr,37.57871815,126.8136588
푸른들청소년도서관,공공도서관,서울특별시,강서구,"월, 법정공휴일",09:00-22:00,09:00-22:00,00:00-00:00,5,14,서울특별시 강서구 강서로45다길 71,2691-1630,http://lib.gangseo.seoul.kr,37.5446709,126.8351800028
강서영어도서관,공공도서관,서울특별시,강서구,"월, 법정공휴일",09:00-18:00,09:00-18:00,00:00-00:00,5,14,서울특별시 강서구 곰달래로57가길 26,2061-2270,http://lib.gangseo.seoul.kr,37.53468478,126.8608037
갈산도서관,공공도서관,서울특별시,양천구,"매주월, 법정공휴일",09:00-22:00,09:00-18:00,00:00-00:00,5,14,서울특별시 양천구 목동남로 4길 48-6,02-2684-5410,http://lib.yangcheon.go.kr,37.508816,126.8673121272
신월음악도서관,공공도서관,서울특별시,양천구,"매주월, 법정공휴일",09:00-22:00,09:00-18:00,00:00-00:00,5,14,서울특별시 양천구 오목로5길 34,02-2084-5412,http://lib.yangcheon.go.kr,37.5246970658,126.840067
미감도서관,공공도서관,서울특별시,양천구,"일요일, 법정공휴일",09:00-18:00,09:00-18:00,00:00-00:00,5,14,서울특별시 양천구 목동중앙남로 57-10,02-2652-5481,http://lib.yangcheon.go.kr,37.538939,126.865463
목마교육도서관,공공도서관,서울특별시,양천구,"일요일, 법정공휴일",09:00-22:00,09:00-18:00,00:00-00:00,5,14,서울특별시 양천구 목동서로 41,02-2652-8910,http://lib.yangcheon.go.kr,37.537144,126.881721
개울건강도서관,공공도서관,서울특별시,양천구,"일요일, 법정공휴일",09:00-22:00,09:00-18:00,00:00-00:00,5,14,서울특별시 양천구 중앙로52길 56,02-2684-5413,http://lib.yangcheon.go.kr,37.525988,126.8566024690
방아다리문학도서관,공공도서관,서울특별시,양천구,"일요일, 법정공휴일",09:00-22:00,09:00-18:00,00:00-00:00,5,14,서울특별시 양천구 화곡로4길 10,02-2620-4149,http://lib.yangcheon.go.kr,37.538543,126.827143
해맞이역사도서관,공공도서관,서울특별시,양천구,"매주월, 법정공휴일",09:00-22:00,09:00-18:00,00:00-00:00,5,14,서울특별시 양천구 지양로 37,02-2699-9223,http://lib.yangcheon.go.kr,37.5190758825,126.8356073444
영어특성화도서관,공공도서관,서울특별시,양천구,"일요일, 법정공휴일",09:00-22:00,10:00-18:00,00:00-00:00,5,14,서울특별시 양천구 목동동로 81,02-2654-8493,http://lib.yangcheon.go.kr,37.515936,126.863865
달마을작은도서관,작은도서관,서울특별시,양천구,"일요일, 법정공휴일",10:00-18:00,10:00-14:00,00:00-00:00,5,14,서울특별시 양천구 목동중앙본로 120,02-2620-3979,http://lib.yangcheon.go.kr,37.546114,126.8717000227
꿈자람 작은도서관,작은도서관,서울특별시,양천구,"일요일, 법정공휴일",10:00-18:00,10:00-13:00,00:00-00:00,5,14,서울특별시 양천구 목동중앙남로 16나길 55,02-2654-3970,http://lib.yangcheon.go.kr,37.544781,126.864407
고운달 작은도서관,작은도서관,서울특별시,양천구,"토,일요일, 법정공휴일",10:00-18:00,00:00-00:00,00:00-00:00,5,14,서울특별시 양천구 곰달래로1길 38,02-2620-4069,http://lib.yangcheon.go.kr,37.5328049940,126.831562
고운맘 작은도서관,작은도서관,서울특별시,양천구,"일요일, 법정공휴일",10:00-18:00,10:00-14:00,00:00-00:00,5,14,서울특별시 양천구 중앙로53길 47,02-2694-5454,http://lib.yangcheon.go.kr,37.5249733583,126.8445676534
달빛마을 작은도서관,작은도서관,서울특별시,양천구,"토,일요일, 법정공휴일",10:00-18:00,00:00-00:00,00:00-00:00,5,14,서울특별시 양천구 남부순환로 54길 5,02-2620-4108,http://lib.yangcheon.go.kr,37.533662,126.829096
지양마을 작은도서관,작은도서관,서울특별시,양천구,"월,일요일, 법정공휴일",10:00-18:00,10:00-18:00,00:00-00:00,5,14,"서울특별시 양천구 지양로17길 33, 파크빌라",02-2692-1704,http://lib.yangcheon.go.kr,37.521851,126.826659
그린나래미술도서관,작은도서관,서울특별시,양천구,법정공휴일,10:00-18:00,09:00-17:00,00:00-00:00,5,14,서울특별시 양천구 중앙로32길 1,02-2084-5387,http://lib.yangcheon.go.kr,37.5185706143,126.854299
호롱불작은도서관,작은도서관,서울특별시,양천구,"토,일요일, 법정공휴일",10:00-18:00,00:00-00:00,00:00-00:00,5,14,서울특별시 양천구 목동동로 152,02-2620-4229,http://lib.yangcheon.go.kr,37.519195,126.870565
등마루골작은도서관,작은도서관,서울특별시,강서구,"토,일, 법정공휴일",09:00-18:00,00:00-00:00,00:00-00:00,3,14,서울특별시 강서구 등촌로 143 등촌2동주민센터 2층,2600-7381,,37.54265881,126.8625043
큰마음작은도서관,작은도서관,서울특별시,강서구,"토,일, 법정공휴일",09:00-18:00,00:00-00:00,00:00-00:00,3,14,서울특별시 강서구 화곡로63길 96 등촌3동주민센터 2층,2600-7448,http://lib.gangseo.seoul.kr,37.55888772,126.8479197
초록향기작은도서관,작은도서관,서울특별시,강서구,"일, 법정공휴일",09:00-18:00,09:00-13:00,00:00-00:00,3,14,서울특별시 강서구 초록마을로5길 29 화곡본동주민센터 2층,2600-7474,http://lib.gangseo.seoul.kr,37.54404976,126.8476647
꿈터작은도서관,작은도서관,서울특별시,강서구,"일, 법정공휴일",10:00-17:00,09:30-12:30,00:00-00:00,3,14,서울특별시 강서구 곰달래로 79 화곡1동주민센터 3층,2600-7515,http://lib.gangseo.seoul.kr,37.53050876,126.841592
옹달샘작은도서관,작은도서관,서울특별시,강서구,"일, 법정공휴일",09:00-18:00,09:00-13:00,00:00-00:00,3,14,서울특별시 강서구 곰달래로37길 13 화곡2동주민센터 2층,2600-7545,http://lib.gangseo.seoul.kr,37.5318264,126.8544869
책마루작은도서관,작은도서관,서울특별시,강서구,"일, 법정공휴일",09:00-18:00,09:00-13:00,00:00-00:00,3,14,서울특별시 강서구 강서로33가길 17 화곡3동주민센터 2층,2600-7577,http://lib.gangseo.seoul.kr,37.54252739,126.8384119
볏고을작은도서관,작은도서관,서울특별시,강서구,"일, 법정공휴일",10:00-18:00,10:00-14:00,00:00-00:00,3,14,서울특별시 강서구 곰달래로57가길 26 화곡4동주민센터2층,2601-2275,,37.53468478,126.8608037
역마을작은도서관,작은도서관,서울특별시,강서구,"토,일, 법정공휴일",09:00-18:00,00:00-00:00,00:00-00:00,3,14,서울특별시 강서구 화곡로 312 화곡6동주민센터 2층,2600-7660,,37.55181585,126.8500753
배다리작은도서관,작은도서관,서울특별시,강서구,"일, 법정공휴일",09:00-18:00,10:00-14:00,00:00-00:00,3,14,서울특별시 강서구 곰달래로25길 45 화곡8동주민센터 2층,2600-7701,,37.53269442,126.8483305
내발산작은도서관,작은도서관,서울특별시,강서구,"일, 법정공휴일",09:30-17:30,09:30-13:30,00:00-00:00,3,14,서울특별시 강서구 강서로52길 89 내발산문화센터 5층,2600-7756,http://lib.gangseo.seoul.kr,37.55749761,126.8431963
성내도서관,공공도서관,서울특별시,강동구,매주월요일,09:00-18:00,09:00-17:00,09:00-17:00,6,14,"서울특별시 강동구 성안로 106-1 (성내동, 성내도서관)",02-471-0044,http://www.gdlibrary.or.kr/snlib,37.53284628,127.1333283
해공도서관,공공도서관,서울특별시,강동구,매주화요일,09:00-18:00,09:00-17:00,09:00-17:00,6,14,"서울특별시 강동구 올림픽로 702 (천호동, 해공공원)",02-478-9656,http://www.gdlibrary.or.kr/hglib,37.5439476727,127.1255383787
강일도서관,공공도서관,서울특별시,강동구,매주화요일,09:00-18:00,09:00-17:00,09:00-17:00,6,14,"서울특별시 강동구 아리수로93길 9-14,4,5층(강일동)",02-427-4004,http://www.gdlibrary.or.kr/gilib,37.5650504,127.1739063
암사도서관,공공도서관,서울특별시,강동구,매주월요일,09:00-18:00,09:00-17:00,09:00-17:00,6,14,"서울특별시 강동구 고덕로20길 42 (암사동, 암사도서관)",02-429-0476,http://www.gdlibrary.or.kr/aslib,37.5528007,127.1333457
천호도서관,공공도서관,서울특별시,강동구,매주월요일,09:00-18:00,09:00-17:00,09:00-17:00,6,14,"서울특별시 강동구 성안로31마길 1(천호동, 천호도서관)",02-488-7223,http://www.gdlibrary.or.kr/chlib,37.54052196,127.1340837
미아문화정보도서관,공공도서관,서울특별시,강북구,매월둘째넷째월요일정부지정공휴일,09:00-22:00,09:00-22:00,09:00-22:00,5,14,서울특별시 강북구 솔매로49길 14 (미아동),02-944-3180,http://www.gblib.or.kr/suyu,37.627063,127.026981
삼각산어린이도서관,공공도서관,서울특별시,강북구,매월둘째넷째월요일정부지정공휴일,09:00-18:00,09:00-17:30,09:00-17:30,5,14,서울특별시 강북구 삼양로19길 34 (미아동),02-944-3190,http://www.gblib.or.kr/kids,37.6151481260,127.0207408628
아리향기작은도서관,작은도서관,서울특별시,강서구,"일, 법정공휴일",09:00-18:00,09:30-13:30,00:00-00:00,3,14,서울특별시 강서구 양천로67가길 63 염창동주민센터 2층,2600-7326,http://lib.gangseo.seoul.kr,37.55377226,126.8709672
생각열매작은도서관,작은도서관,서울특별시,강서구,"일, 법정공휴일",09:00-18:00,09:00-13:00,00:00-00:00,3,14,서울특별시 강서구 공항대로53가길 55 등촌1동주민센터 2층,2600-7356,http://lib.gangseo.seoul.kr,37.55582716,126.8589084
한내행복발전소,작은도서관,서울특별시,노원구　,"법정공휴일, 일요일",09:00-18:00,10:00-17:00,00:00-00:00,5,14,서울특별시 노원구 마들로3길 15(월계이마트 부지),070-4206-0061,www.nowonlib.kr,37.6265077394,127.0619783046
육사작은도서관,작은도서관,서울특별시,노원구　,"법정공휴일, 토요일, 일요일",09:00-18:00,00:00-00:00,00:00-00:00,0,0,서울특별시 노원구 화랑로 564(육사아파트 복지동내),00-000-0000,,37.6201219612,127.0894163730
KB국민은행과 함께하는 나무작은도서관,작은도서관,서울특별시,노원구　,"법정공휴일, 일요일",09:00-18:00,10:00-13:00,00:00-00:00,5,14,서울특별시 노원구 동일로 1405 (KB국민은행 노원 지점 1층),070-4158-9660,,,
수락작은도서관,작은도서관,서울특별시,노원구　,"법정공휴일, 일요일",09:00-18:00,10:00-13:00,00:00-00:00,5,14,서울특별시 노원구 덕릉로 859(상계동 37-7),02-2116-2809,www.nowonlib.kr,37.6729096975,127.0832362770
해솔작은도서관,작은도서관,서울특별시,노원구　,"법정공휴일, 일요일",09:00-18:00,10:00-13:00,00:00-00:00,5,14,서울특별시 노원구 한글비석로 434(상계동 167-2),02-2116-2849,www.nowonlib.kr,37.6629790560,127.0693664138
메아리작은도서관,작은도서관,서울특별시,노원구　,"법정공휴일, 일요일",09:00-18:00,10:00-13:00,00:00-00:00,5,14,서울특별시 노원구 노해길 183(상계6.7동 701-1),02-2116-2863,www.nowonlib.kr,,
반디작은도서관,작은도서관,서울특별시,노원구　,"법정공휴일, 일요일",09:00-18:00,10:00-13:00,00:00-00:00,5,14,서울특별시 노원구 동일로227길 97(상계동 658),02-2116-2909,www.nowonlib.kr,37.6667362667,127.0515525307
한울작은도서관,작은도서관,서울특별시,노원구　,"법정공휴일, 일요일",09:00-18:00,10:00-13:00,00:00-00:00,5,14,서울특별시 노원구 한글비석로 487(상계동 682),02-2116-2929,www.nowonlib.kr,37.6645210633,127.0638187842
가온작은도서관,작은도서관,서울특별시,노원구　,"법정공휴일, 일요일",09:00-18:00,10:00-13:00,00:00-00:00,5,14,서울특별시 노원구 노원로 530(상계동 671),02-2116-2959,www.nowonlib.kr,37.6612866101,127.0602618665
노원문화원,작은도서관,서울특별시,노원구　,"법정공휴일, 일요일",09:00-18:00,10:00-13:00,00:00-00:00,5,14,서울특별시 노원구 동일로 197길 24(공릉동 710번지),02-948-1245,www.nowonlib.kr,37.6287990843,127.0698013671
상계숲속작은도서관,작은도서관,서울특별시,노원구　,"법정공휴일, 일요일",09:00-18:00,10:00-17:00,00:00-00:00,5,14,서울특별시 노원구 동일로 227길 97(상계동 658),02-3391-7889,www.nowonlib.kr,37.6667362667,127.0515525307
초안산숲속작은도서관,작은도서관,서울특별시,노원구　,"법정공휴일, 일요일",09:00-18:00,10:00-14:00,00:00-00:00,5,14,서울특별시 노원구 덕릉로 60길 199 (월계2동 905-12),02-905-3900,www.nowonlib.kr,37.6320801440,127.0444275977
양재도서관,공공도서관,서울특별시,서초구,매주 금요일 및 법정공휴일,09:00-22:00,09:00-20:00,09:00-20:00,5,14,서울특별시 서초구 양재천로 33,02-3486-4050,http://yangjae.seocholib.or.kr/docyan/,37.473627,127.033626707
서이도서관,공공도서관,서울특별시,서초구,매주 월요일 및 법정공휴일,09:00-21:00,09:00-18:00,09:00-18:00,5,14,서울특별시 서초구 서초대로70길 51,02-3471-1337,http://spublic.seocholib.or.kr/dockid/,37.4920709977,127.024905
잠원도서관,공공도서관,서울특별시,서초구,매주 월요일 및 법정공휴일,09:00-21:00,09:00-18:00,09:00-18:00,5,14,서울특별시 서초구 나루터로 38,02-3477-8655,http://spublic.seocholib.or.kr/dockid/,37.5149691587,127.013922
방배도서관,공공도서관,서울특별시,서초구,매주 월요일 및 법정공휴일,09:00-21:00,09:00-18:00,09:00-18:00,5,14,서울특별시 서초구 방배로 40,02-3471-3993,http://spublic.seocholib.or.kr/dockid/,37.4784395733,126.999945
서초그림책도서관,공공도서관,서울특별시,서초구,매주 월요일 및 법정공휴일,09:00-21:00,09:00-18:00,09:00-18:00,5,14,서울특별시 서초구 명달로 150,02-3471-0995,http://spublic.seocholib.or.kr/dockid/,37.490693,127.0051019651
반포도서관,공공도서관,서울특별시,서초구,매주 월요일 및 법정공휴일,09:00-22:00,09:00-18:00,09:00-18:00,5,14,서울특별시 서초구 고무래로 34,02-520-8700,http://www.seocholib.or.kr/docwww/,37.5024886051,127.012535
내곡도서관,공공도서관,서울특별시,서초구,매주 월요일 및 법정공휴일,09:00-22:00,09:00-18:00,09:00-18:00,5,14,서울특별시 서초구 청계산로7길 9-20,02-3461-3007,http://naegok.seocholib.or.kr/docnae/,37.4520021701,127.0544427011
광진정보도서관,공공도서관,서울특별시,광진구,"매월 둘째, 넷째 화요일, 공휴일",09:00-22:00,09:00-17:00,00:00-00:00,5,21,서울특별시 광진구 아차산로78길 90(광장동),02-3437-5092,http://www.gwangjinlib.seoul.kr/,37.5510735461,127.1106136855
서울특별시교육청강남도서관,공공도서관,서울특별시,강남구,"1,3주 수요일 및 법정공휴일",09:00~20:00,09:00~17:00,,,,서울특별시 강남구 선릉로116길 45,02-3448-4741~5,http://gnlib.sen.go.kr,37.51368143,127.0468374
서울특별시교육청개포도서관,공공도서관,서울특별시,강남구,"2,4주 목요일 및 법정공휴일",09:00~20:00,09:00~17:00,,,,서울특별시 강남구 선릉로4길 30,02-3460-8200,http://gplib.sen.go.kr,37.48308019,127.063867
서울특별시교육청강동도서관,공공도서관,서울특별시,강동구,"1,3주 목요일 및 법정공휴일",09:00~20:00,09:00~17:00,,,,서울특별시 강동구 양재대로116길 57,02-2225-9800~3,http://gdlib.sen.go.kr,37.53815107,127.1434874
서울특별시교육청고덕평생학습관,공공도서관,서울특별시,강동구,"2,4주 월요일 및 법정공휴일",09:00~20:00,09:00~17:00,,,,서울특별시 강동구 고덕동길 295 (고덕2동 296),02-6902-2600,http://gdllc.sen.go.kr,37.55930391,127.1579066
서울특별시교육청강서도서관,공공도서관,서울특별시,강서구,"1,3주 금요일 및 법정공휴일",09:00~20:00,09:00~17:00,,,,서울특별시 강서구 등촌로51나길 29,02-3219-7000,http://gslib.sen.go.kr,37.5479003,126.8599262
서울특별시교육청고척도서관,공공도서관,서울특별시,구로구,"2,4주 수요일 및 법정공휴일",09:00~20:00,09:00~17:00,,,,서울특별시 구로구 고척로45길 31,02-2615-0524,http://gclib.sen.go.kr,37.50534626,126.8530515
서울특별시교육청구로도서관,공공도서관,서울특별시,구로구,"1,3주 수요일 및 법정공휴일",09:00~20:00,09:00~17:00,,,,서울특별시 구로구 공원로 15,02-6958-2800,http://grlib.sen.go.kr,37.49867236,126.8911162
서울특별시교육청노원평생학습관,공공도서관,서울특별시,노원구,"2,4주 월요일 및 법정공휴일",09:00~20:00,09:00~17:00,,,,서울특별시 노원구 동일로204길 13,02-979-1741,http://nwllc.sen.go.kr,37.63953995,127.067837
서울특별시교육청도봉도서관,공공도서관,서울특별시,도봉구,"2,4주 수요일 및 법정공휴일",09:00~20:00,09:00~17:00,,,,서울특별시 도봉구 삼양로 556,02-6714-7400,http://dblib.sen.go.kr/,37.65253218,127.0127628
서울특별시교육청동대문도서관,공공도서관,서울특별시,동대문구,"2,4주 수요일 및 법정공휴일",09:00~20:00,09:00~17:00,,,,서울특별시 동대문구 천호대로4길 22,02-2170-1000,http://ddmlib.sen.go.kr,37.57348736,127.0247655
서울특별시교육청동작도서관,공공도서관,서울특별시,동작구,"2,4주 금요일 및 법정공휴일",09:00~20:00,09:00~17:00,,,,서울특별시 동작구 장승배기로 94,02-823-6419,http://djlib.sen.go.kr,37.50596898,126.9401028
서울특별시교육청마포평생학습관,공공도서관,서울특별시,마포구,"2,4주 월요일 및 법정공휴일",09:00~20:00,09:00~17:00,,,,서울특별시 마포구 홍익로2길 16,02-2137-0000,http://mpllc.sen.go.kr,37.5543221,126.9242045
서울특별시교육청마포평생학습관아현분관,공공도서관,서울특별시,마포구,"2,4주 월요일 및 법정공휴일",09:00~20:00,09:00~17:00,,,,서울특별시 마포구 마포대로 224,02-362-8785,http://ahyon.sen.go.kr,37.55416693,126.9573466
서울특별시교육청서대문도서관,공공도서관,서울특별시,서대문구,"1,3주 화요일 및 법정공휴일",09:00~20:00,09:00~17:00,,,,서울특별시 서대문구 모래내로 412,02-6948-2115,http://sdmlib.sen.go.kr,37.58331954,126.9408583
서울특별시교육청송파도서관,공공도서관,서울특별시,송파구,"2,4주 화요일 및 법정공휴일",09:00~20:00,09:00~17:00,,,,서울특별시 송파구 동남로 263,02-3434-3333,http://splib.sen.go.kr,37.49999503,127.1348515
서울특별시교육청양천도서관,공공도서관,서울특별시,양천구,"1,3주 목요일 및 법정공휴일",09:00~20:00,09:00~17:00,,,,서울특별시 양천구 목동서로 113,02-2062-3900,http://yclib.sen.go.kr,37.53349939,126.8757691
서울특별시교육청영등포평생학습관,공공도서관,서울특별시,영등포구,"2,4주 월요일 및 법정공휴일",09:00~20:00,09:00~17:00,,,,서울특별시 영등포구 버드나루로15길 10,02-6712-7500,http://ydpllc.sen.go.kr,37.52580934,126.9071819
서울특별시교육청남산도서관,공공도서관,서울특별시,용산구,"1,3주 월요일 및 법정공휴일",09:00~20:00,09:00~17:00,,,,서울특별시 용산구 소월로 109,02-754-7338,http://nslib.sen.go.kr,37.55255227,126.9821555
서울특별시교육청용산도서관,공공도서관,서울특별시,용산구,"2,4주 화요일 및 법정공휴일",09:00~20:00,09:00~17:00,,,,서울특별시 용산구 두텁바위로 160,02-6902-7777,http://yslib.sen.go.kr,37.55200494,126.9801399
서울특별시교육청어린이도서관,공공도서관,서울특별시,종로구,"1,3주 월요일 및 법정공휴일",09:00~18:00,09:00~17:00,,,,서울특별시 종로구 사직로9길 7,02-731-2300,http://childlib.sen.go.kr,37.57607257,126.9683689
서울특별시교육청정독도서관,공공도서관,서울특별시,종로구,"1,3주 수요일 및 법정공휴일",09:00~20:00,09:00~17:00,,,,서울특별시 종로구 북촌로5길 48,02-2011-5799,http://jdlib.sen.go.kr,37.58103147,126.983694
서울특별시교육청종로도서관,공공도서관,서울특별시,종로구,"2,4주 월요일 및 법정공휴일",09:00~20:00,09:00~17:00,,,,서울특별시 종로구 사직로9길 15-14,02-721-0711,http://jnlib.sen.go.kr,37.5764504,126.9664672
